$GPGGA,103759.34,5423.9143,N,01836.3712,E,1,10,0.848,39.291,M,30.639,M,0,0*5C
$GPRMC,103759.34,A,5423.9143,N,01836.3712,E,0.153,30.144,310317,0,W,A*01
$GPVTG,30.144,T,30.144,M,0.153,N,0.283,K,A*2D
$GPGSA,A,3,28,20,30,24,5,15,7,17,13,8,,,1.334,0.848,1.030*06
$GPGSV,3,1,12,5,18,207,29,7,5,83,25,8,12,27,23,30,41,82,43*40
$GPGSV,3,2,12,13,79,245,43,15,46,293,33,17,12,138,22,18,12,327,27*7B
$GPGSV,3,3,12,20,32,259,30,24,10,266,21,28,65,93,36,11,4,64,0*72
$GPGGA,103800.34,5423.9142,N,01836.3711,E,1,10,0.848,39.569,M,30.639,M,0,0*5D
$GPRMC,103800.34,A,5423.9142,N,01836.3711,E,0.324,30.144,310317,0,W,A*02
$GPVTG,30.144,T,30.144,M,0.324,N,0.599,K,A*23
$GPGSA,A,3,28,20,30,24,5,15,7,17,13,8,,,1.334,0.848,1.030*06
$GPGSV,3,1,12,5,18,207,30,7,5,83,26,8,12,27,22,30,41,82,44*4D
$GPGSV,3,2,12,13,79,245,43,15,46,293,33,17,12,138,23,18,12,327,26*7B
$GPGSV,3,3,12,20,32,259,32,24,10,266,21,28,65,93,36,11,4,64,0*70
$GPGGA,103801.34,5423.9141,N,01836.3711,E,1,10,0.848,39.743,M,30.639,M,0,0*55
$GPRMC,103801.34,A,5423.9141,N,01836.3711,E,0.061,30.144,310317,0,W,A*02
$GPVTG,30.144,T,30.144,M,0.061,N,0.112,K,A*26
$GPGSA,A,3,28,20,30,24,5,15,7,17,13,8,,,1.334,0.848,1.030*06
$GPGSV,3,1,12,5,18,207,30,7,5,83,26,8,12,27,23,30,41,82,43*4B
$GPGSV,3,2,12,13,79,245,44,15,46,293,31,17,12,138,23,18,12,327,25*7D
$GPGSV,3,3,12,20,32,259,33,24,10,266,21,28,65,93,36,11,4,64,0*71
$GPGGA,103802.34,5423.9140,N,01836.3710,E,1,10,0.848,39.934,M,30.639,M,0,0*58
$GPRMC,103802.34,A,5423.9140,N,01836.3710,E,0.272,30.144,310317,0,W,A*01
$GPVTG,30.144,T,30.144,M,0.272,N,0.504,K,A*25
$GPGSA,A,3,28,20,30,24,5,15,7,17,13,8,,,1.334,0.848,1.030*06
$GPGSV,3,1,12,5,18,207,30,7,4,83,27,8,12,27,23,30,41,82,43*4B
$GPGSV,3,2,12,13,79,244,43,15,46,293,31,17,12,138,23,18,12,327,27*79
$GPGSV,3,3,12,20,32,259,34,24,10,266,21,28,65,93,36,11,4,64,0*76
$GPGGA,103803.34,5423.9141,N,01836.3709,E,1,10,0.848,40.214,M,30.639,M,0,0*57
$GPRMC,103803.34,A,5423.9141,N,01836.3709,E,0.308,30.144,310317,0,W,A*05
$GPVTG,30.144,T,30.144,M,0.308,N,0.571,K,A*2B
$GPGSA,A,3,28,20,30,5,15,7,24,17,13,8,,,1.334,0.848,1.030*06
$GPGSV,3,1,12,5,18,207,30,7,4,83,27,8,12,27,23,30,41,82,43*4B
$GPGSV,3,2,12,13,79,244,44,15,46,293,30,17,12,138,23,18,12,327,29*71
$GPGSV,3,3,12,20,32,259,34,24,10,266,21,28,65,93,36,11,4,64,0*76
$GPGGA,103804.34,5423.9142,N,01836.3707,E,1,10,0.848,40.503,M,30.639,M,0,0*5C
$GPRMC,103804.34,A,5423.9142,N,01836.3707,E,0.135,30.144,310317,0,W,A*03
$GPVTG,30.144,T,30.144,M,0.135,N,0.250,K,A*23
$GPGSA,A,3,28,20,30,24,5,15,7,17,13,8,,,1.334,0.848,1.030*06
$GPGSV,3,1,12,5,17,207,31,7,4,83,26,8,12,27,22,30,41,82,43*45
$GPGSV,3,2,12,13,79,244,43,15,46,293,30,17,12,138,23,18,12,327,30*7E
$GPGSV,3,3,12,20,32,259,34,24,10,266,22,28,65,93,36,11,4,64,0*75
$GPGGA,103805.34,5423.9143,N,01836.3705,E,1,10,0.848,40.242,M,30.639,M,0,0*5C
$GPRMC,103805.34,A,5423.9143,N,01836.3705,E,0.080,30.144,310317,0,W,A*0E
$GPVTG,30.144,T,30.144,M,0.080,N,0.149,K,A*27
$GPGSA,A,3,28,20,30,24,5,15,7,13,8,17,,,1.334,0.848,1.030*06
$GPGSV,3,1,12,5,17,207,31,7,4,83,27,8,12,27,23,30,41,82,43*45
$GPGSV,3,2,12,13,79,244,43,15,46,293,30,17,12,138,22,18,12,327,32*7D
$GPGSV,3,3,12,20,32,259,35,24,10,266,22,28,65,93,36,11,4,64,0*74
$GPGGA,103806.34,5423.9143,N,01836.3704,E,1,10,0.848,40.146,M,30.639,M,0,0*59
$GPRMC,103806.34,A,5423.9143,N,01836.3704,E,0.014,30.144,310317,0,W,A*01
$GPVTG,30.144,T,30.144,M,0.014,N,0.025,K,A*21
$GPGSA,A,3,28,20,30,24,5,15,7,17,13,8,,,1.334,0.848,1.030*06
$GPGSV,3,1,12,5,17,207,31,7,4,83,26,8,12,27,23,30,41,82,43*44
$GPGSV,3,2,12,13,79,244,43,15,46,293,29,17,12,138,22,18,12,327,32*75
$GPGSV,3,3,12,20,32,259,35,24,10,266,23,28,65,93,36,11,4,64,0*75
$GPGGA,103807.34,5423.9143,N,01836.3703,E,1,10,0.848,40.351,M,30.639,M,0,0*5B
$GPRMC,103807.34,A,5423.9143,N,01836.3703,E,0.087,30.144,310317,0,W,A*0D
$GPVTG,30.144,T,30.144,M,0.087,N,0.161,K,A*2A
$GPGSA,A,3,28,20,30,24,5,15,7,17,13,8,,,1.334,0.848,1.030*06
$GPGSV,3,1,12,5,17,207,30,7,4,83,26,8,12,27,23,30,41,82,43*45
$GPGSV,3,2,12,13,79,244,44,15,46,293,29,17,12,138,21,18,12,327,32*71
$GPGSV,3,3,12,20,32,259,35,24,10,266,23,28,65,93,36,11,4,64,0*75
$GPGGA,103808.34,5423.9144,N,01836.3700,E,1,10,0.848,40.543,M,30.639,M,0,0*55
$GPRMC,103808.34,A,5423.9144,N,01836.3700,E,0.338,30.144,310317,0,W,A*01
$GPVTG,30.144,T,30.144,M,0.338,N,0.626,K,A*29
$GPGSA,A,3,28,20,30,24,5,15,7,17,13,8,,,1.334,0.848,1.030*06
$GPGSV,3,1,12,5,17,207,30,7,4,84,26,8,12,27,22,30,41,82,43*43
$GPGSV,3,2,12,13,79,244,43,15,46,293,29,17,12,138,22,18,12,327,32*75
$GPGSV,3,3,12,20,32,258,35,24,10,266,24,28,65,93,37,11,4,64,0*72
$GPGGA,103809.34,5423.9145,N,01836.3698,E,1,10,0.848,40.443,M,30.639,M,0,0*54
$GPRMC,103809.34,A,5423.9145,N,01836.3698,E,0.214,30.144,310317,0,W,A*0E
$GPVTG,30.144,T,30.144,M,0.214,N,0.396,K,A*28
$GPGSA,A,3,28,20,30,24,5,15,7,17,13,8,,,1.334,0.848,1.030*06
$GPGSV,3,1,12,5,17,207,30,7,4,84,27,8,12,27,22,30,41,82,43*42
$GPGSV,3,2,12,13,79,244,43,15,46,293,28,17,12,138,21,18,12,327,32*77
$GPGSV,3,3,12,20,32,258,35,24,10,266,24,28,65,93,37,11,4,64,0*72
$GPGGA,103810.34,5423.9145,N,01836.3696,E,1,10,0.848,40.639,M,30.639,M,0,0*5D
$GPRMC,103810.34,A,5423.9145,N,01836.3696,E,0.311,30.144,310317,0,W,A*0C
$GPVTG,30.144,T,30.144,M,0.311,N,0.577,K,A*25
$GPGSA,A,3,28,20,30,24,5,15,7,17,13,8,,,1.334,0.848,1.030*06
$GPGSV,3,1,12,5,17,207,30,7,4,84,27,8,12,27,21,30,41,82,43*41
$GPGSV,3,2,12,13,79,244,43,15,46,293,28,17,12,138,21,18,12,327,32*77
$GPGSV,3,3,12,20,32,258,34,24,10,266,23,28,65,93,38,11,4,64,0*7B
$GPGGA,103811.34,5423.9144,N,01836.3693,E,1,10,0.848,40.904,M,30.639,M,0,0*59
$GPRMC,103811.34,A,5423.9144,N,01836.3693,E,0.326,30.144,310317,0,W,A*0D
$GPVTG,30.144,T,30.144,M,0.326,N,0.603,K,A*21
$GPGSA,A,3,28,20,30,24,5,15,7,17,13,8,,,1.334,0.848,1.030*06
$GPGSV,3,1,12,5,17,207,30,7,4,84,27,8,12,27,18,30,41,82,43*4B
$GPGSV,3,2,12,13,79,244,43,15,46,293,28,17,12,138,21,18,12,327,33*76
$GPGSV,3,3,12,20,32,258,34,24,10,266,23,28,65,93,38,11,4,64,0*7B
$GPGGA,103812.34,5423.9143,N,01836.3691,E,1,10,0.848,40.945,M,30.639,M,0,0*5A
$GPRMC,103812.34,A,5423.9143,N,01836.3691,E,0.173,30.144,310317,0,W,A*09
$GPVTG,30.144,T,30.144,M,0.173,N,0.320,K,A*27
$GPGSA,A,3,28,20,30,24,5,15,7,17,13,8,,,1.334,0.848,1.030*06
$GPGSV,3,1,12,5,17,207,30,7,4,84,28,8,12,27,17,30,41,82,43*4B
$GPGSV,3,2,12,13,79,244,43,15,46,293,28,17,12,138,21,18,12,327,33*76
$GPGSV,3,3,12,20,32,258,34,24,10,266,22,28,65,93,38,11,4,64,0*7A
$GPGGA,103813.34,5423.9143,N,01836.3690,E,1,10,0.848,40.988,M,30.639,M,0,0*5B
$GPRMC,103813.34,A,5423.9143,N,01836.3690,E,0.258,30.144,310317,0,W,A*03
$GPVTG,30.144,T,30.144,M,0.258,N,0.477,K,A*28
$GPGSA,A,3,28,20,30,24,5,15,7,17,13,8,,,1.334,0.848,1.030*06
$GPGSV,3,1,12,5,17,207,30,7,4,84,28,8,12,27,18,30,41,82,43*44
$GPGSV,3,2,12,13,79,244,44,15,46,293,28,17,12,138,20,18,12,327,34*77
$GPGSV,3,3,12,20,32,258,33,24,10,266,21,28,65,93,38,11,4,64,0*7E
$GPGGA,103814.34,5423.9143,N,01836.3689,E,1,10,0.848,41.394,M,30.639,M,0,0*52
$GPRMC,103814.34,A,5423.9143,N,01836.3689,E,0.199,30.144,310317,0,W,A*02
$GPVTG,30.144,T,30.144,M,0.199,N,0.369,K,A*2E
$GPGSA,A,3,28,20,30,24,5,15,7,17,13,8,,,1.334,0.848,1.029*0E
$GPGSV,3,1,12,5,17,207,29,7,4,84,29,8,12,27,18,30,41,82,43*4D
$GPGSV,3,2,12,13,79,244,44,15,46,293,29,17,12,138,20,18,12,327,34*76
$GPGSV,3,3,12,20,32,258,33,24,10,266,20,28,65,93,38,11,4,64,0*7F
$GPGGA,103815.34,5423.9145,N,01836.3687,E,1,10,0.848,41.391,M,30.639,M,0,0*5E
$GPRMC,103815.34,A,5423.9145,N,01836.3687,E,0.084,30.144,310317,0,W,A*06
$GPVTG,30.144,T,30.144,M,0.084,N,0.156,K,A*2D
$GPGSA,A,3,28,20,30,24,5,15,7,17,13,8,,,1.334,0.848,1.029*0E
$GPGSV,3,1,12,5,17,207,30,7,4,84,29,8,12,27,19,30,41,82,43*44
$GPGSV,3,2,12,13,79,244,44,15,47,293,30,17,12,138,20,18,12,327,34*7F
$GPGSV,3,3,12,20,32,258,33,24,10,266,19,28,65,93,38,11,4,64,0*75
$GPGGA,103816.34,5423.9146,N,01836.3684,E,1,10,0.848,41.455,M,30.639,M,0,0*52
$GPRMC,103816.34,A,5423.9146,N,01836.3684,E,0.263,30.144,310317,0,W,A*0E
$GPVTG,30.144,T,30.144,M,0.263,N,0.486,K,A*2E
$GPGSA,A,3,28,20,30,24,5,15,7,17,13,8,,,1.334,0.848,1.029*0E
$GPGSV,3,1,12,5,17,207,30,7,4,84,29,8,12,27,24,30,41,82,43*4A
$GPGSV,3,2,12,13,79,244,44,15,47,293,30,17,12,138,20,18,12,327,34*7F
$GPGSV,3,3,12,20,32,258,32,24,10,266,19,28,65,93,38,11,4,64,0*74
$GPGGA,103817.34,5423.9147,N,01836.3683,E,1,10,0.848,41.248,M,30.639,M,0,0*5F
$GPRMC,103817.34,A,5423.9147,N,01836.3683,E,0.122,30.144,310317,0,W,A*0F
$GPVTG,30.144,T,30.144,M,0.122,N,0.227,K,A*25
$GPGSA,A,3,28,20,30,24,5,15,7,17,13,8,,,1.334,0.848,1.029*0E
$GPGSV,3,1,12,5,17,207,31,7,4,84,29,8,12,27,19,30,41,82,44*42
$GPGSV,3,2,12,13,79,244,44,15,47,293,31,17,12,138,23,18,12,327,34*7D
$GPGSV,3,3,12,20,32,258,32,24,10,266,19,28,65,93,38,11,4,64,0*74
$GPGGA,103818.34,5423.9146,N,01836.3682,E,1,10,0.848,41.237,M,30.639,M,0,0*58
$GPRMC,103818.34,A,5423.9146,N,01836.3682,E,0.306,30.144,310317,0,W,A*04
$GPVTG,30.144,T,30.144,M,0.306,N,0.567,K,A*22
$GPGSA,A,3,28,20,30,24,5,15,7,8,17,13,,,1.334,0.848,1.029*0E
$GPGSV,3,1,12,5,17,207,31,7,4,84,29,8,12,27,20,30,41,82,43*4F
$GPGSV,3,2,12,13,79,244,44,15,47,293,31,17,12,138,24,18,12,327,32*7C
$GPGSV,3,3,12,20,32,258,32,24,10,266,18,28,65,93,38,11,4,64,0*75
$GPGGA,103819.34,5423.9145,N,01836.3681,E,1,10,0.848,41.429,M,30.639,M,0,0*50
$GPRMC,103819.34,A,5423.9145,N,01836.3681,E,0.110,30.144,310317,0,W,A*00
$GPVTG,30.144,T,30.144,M,0.110,N,0.205,K,A*24
$GPGSA,A,3,28,20,30,24,5,15,7,8,17,13,,,1.334,0.848,1.029*0E
$GPGSV,3,1,12,5,17,207,31,7,4,84,28,8,12,27,19,30,41,82,43*44
$GPGSV,3,2,12,13,79,244,44,15,47,293,31,17,12,138,25,18,12,327,32*7D
$GPGSV,3,3,12,20,32,258,32,24,10,266,18,28,65,93,38,11,4,64,0*75
$GPGGA,103820.34,5423.9144,N,01836.3680,E,1,9,0.923,41.743,M,30.639,M,0,0*61
$GPRMC,103820.34,A,5423.9144,N,01836.3680,E,0.251,30.144,310317,0,W,A*0C
$GPVTG,30.144,T,30.144,M,0.251,N,0.464,K,A*23
$GPGSA,A,3,28,20,30,5,15,7,8,17,13,,,,1.490,0.923,1.169*08
$GPGSV,3,1,12,5,17,207,31,7,4,84,28,8,12,27,19,11,4,64,28*73
$GPGSV,3,2,12,13,79,244,44,15,47,293,31,17,12,138,26,18,12,327,31*7D
$GPGSV,3,3,12,20,32,258,32,24,10,266,17,28,65,93,37,30,41,82,43*78
$GPGGA,103821.34,5423.9144,N,01836.3683,E,1,10,0.848,41.650,M,30.639,M,0,0*54
$GPRMC,103821.34,A,5423.9144,N,01836.3683,E,0.915,30.144,310317,0,W,A*05
$GPVTG,30.144,T,30.144,M,0.915,N,1.695,K,A*25
$GPGSA,A,3,28,20,30,24,5,15,7,8,17,13,,,1.334,0.848,1.029*0E
$GPGSV,3,1,12,5,17,207,30,7,4,84,27,8,12,27,18,30,41,82,44*4C
$GPGSV,3,2,12,13,79,244,44,15,47,293,31,17,12,138,26,18,12,327,30*7C
$GPGSV,3,3,12,20,32,258,32,24,10,266,17,28,65,93,37,11,4,64,0*75
$GPGGA,103822.34,5423.9158,N,01836.3697,E,1,10,0.848,41.375,M,30.639,M,0,0*5D
$GPRMC,103822.34,A,5423.9158,N,01836.3697,E,6.906,36.277,310317,0,W,A*0F
$GPVTG,36.277,T,36.277,M,6.906,N,12.790,K,A*17
$GPGSA,A,3,28,20,30,24,5,15,7,8,17,13,,,1.334,0.848,1.029*0E
$GPGSV,3,1,12,5,17,207,30,7,4,84,26,8,12,27,18,30,41,82,43*4A
$GPGSV,3,2,12,13,79,244,43,15,47,293,32,17,12,138,26,18,12,327,31*79
$GPGSV,3,3,12,20,32,258,33,24,10,266,15,28,65,93,37,11,4,64,0*76
$GPGGA,103823.34,5423.9175,N,01836.3718,E,1,10,0.848,41.442,M,30.639,M,0,0*56
$GPRMC,103823.34,A,5423.9175,N,01836.3718,E,7.608,33.554,310317,0,W,A*04
$GPVTG,33.554,T,33.554,M,7.608,N,14.091,K,A*17
$GPGSA,A,3,28,20,30,5,15,7,8,17,13,24,,,1.334,0.848,1.029*0E
$GPGSV,3,1,12,5,17,207,29,7,4,84,25,8,12,27,19,30,41,82,43*40
$GPGSV,3,2,12,13,79,244,43,15,47,293,33,17,12,138,26,18,12,327,31*78
$GPGSV,3,3,12,20,32,258,35,24,10,266,14,28,65,93,37,11,4,64,0*71
$GPGGA,103824.34,5423.9195,N,01836.3736,E,1,10,0.848,41.299,M,30.639,M,0,0*53
$GPRMC,103824.34,A,5423.9195,N,01836.3736,E,7.654,20.472,310317,0,W,A*0F
$GPVTG,20.472,T,20.472,M,7.654,N,14.175,K,A*15
$GPGSA,A,3,28,20,30,5,15,7,17,13,8,24,,,1.334,0.848,1.029*0E
$GPGSV,3,1,12,5,17,207,30,7,4,84,23,8,12,27,21,30,41,82,42*44
$GPGSV,3,2,12,13,79,244,43,15,47,293,35,17,12,138,26,18,12,327,30*7F
$GPGSV,3,3,12,20,32,258,35,24,10,266,13,28,65,93,38,11,4,64,0*79
$GPGGA,103825.34,5423.9215,N,01836.3740,E,1,10,0.848,41.310,M,30.639,M,0,0*58
$GPRMC,103825.34,A,5423.9215,N,01836.3740,E,7.026,352.285,310317,0,W,A*3F
$GPVTG,352.285,T,352.285,M,7.026,N,13.012,K,A*11
$GPGSA,A,3,28,20,30,5,15,7,8,17,13,24,,,1.334,0.848,1.029*0E
$GPGSV,3,1,12,5,17,207,30,7,4,84,21,8,12,27,25,11,4,64,29*75
$GPGSV,3,2,12,13,79,244,43,15,47,293,36,17,12,138,26,18,12,327,27*7A
$GPGSV,3,3,12,20,32,258,35,24,10,266,14,28,65,93,38,30,41,82,41*71
$GPGGA,103826.34,5423.9233,N,01836.3726,E,1,10,0.848,41.590,M,30.639,M,0,0*51
$GPRMC,103826.34,A,5423.9233,N,01836.3726,E,8.064,317.562,310317,0,W,A*3E
$GPVTG,317.562,T,317.562,M,8.064,N,14.934,K,A*12
$GPGSA,A,3,28,20,30,5,15,7,8,17,13,24,,,1.334,0.848,1.029*0E
$GPGSV,3,1,12,5,17,207,30,7,4,84,20,8,12,27,27,30,41,82,41*42
$GPGSV,3,2,12,13,79,243,43,15,47,293,37,17,12,138,25,18,12,327,26*7E
$GPGSV,3,3,12,20,32,258,34,24,10,266,16,28,65,93,39,11,4,64,0*7C
$GPGGA,103827.34,5423.9244,N,01836.3704,E,1,10,0.848,41.721,M,30.639,M,0,0*58
$GPRMC,103827.34,A,5423.9244,N,01836.3704,E,6.520,309.601,310317,0,W,A*3D
$GPVTG,309.601,T,309.601,M,6.520,N,12.075,K,A*13
$GPGSA,A,3,28,20,30,5,15,7,8,17,13,24,,,1.334,0.848,1.029*0E
$GPGSV,3,1,12,5,17,207,31,7,4,84,21,8,12,27,28,30,41,82,41*4D
$GPGSV,3,2,12,13,79,243,42,15,47,293,36,17,12,138,24,18,12,327,22*7B
$GPGSV,3,3,12,20,32,258,33,24,10,266,19,28,65,93,42,11,4,64,0*78
$GPGGA,103828.34,5423.9262,N,01836.3690,E,1,9,1.003,41.769,M,30.639,M,0,0*6D
$GPRMC,103828.34,A,5423.9262,N,01836.3690,E,6.634,335.512,310317,0,W,A*32
$GPVTG,335.512,T,335.512,M,6.634,N,12.285,K,A*18
$GPGSA,A,3,28,20,30,5,15,7,8,13,24,,,,1.462,1.003,1.063*04
$GPGSV,3,1,12,5,17,207,31,7,4,84,23,8,12,27,30,30,41,82,43*44
$GPGSV,3,2,12,13,79,243,41,15,47,293,35,17,12,138,24,18,12,327,21*78
$GPGSV,3,3,12,20,32,258,29,24,10,266,20,28,65,93,42,11,4,64,0*79
$GPGGA,103829.34,5423.9247,N,01836.3682,E,1,10,0.848,42.009,M,30.639,M,0,0*54
$GPRMC,103829.34,A,5423.9247,N,01836.3682,E,2.186,335.512,310317,0,W,A*3D
$GPVTG,335.512,T,335.512,M,2.186,N,4.048,K,A*26
$GPGSA,A,3,28,20,30,24,5,15,7,8,13,17,,,1.334,0.848,1.029*0E
$GPGSV,3,1,12,5,17,207,30,7,4,84,23,8,12,27,31,30,41,82,44*43
$GPGSV,3,2,12,13,79,243,40,15,47,293,33,17,12,138,26,18,12,327,23*7F
$GPGSV,3,3,12,20,32,258,28,24,10,266,20,28,65,92,43,11,4,64,0*78
$GPGGA,103830.34,5423.9238,N,01836.3677,E,1,10,0.848,42.713,M,30.639,M,0,0*52
$GPRMC,103830.34,A,5423.9238,N,01836.3677,E,3.764,199.763,310317,0,W,A*3C
$GPVTG,199.763,T,199.763,M,3.764,N,6.972,K,A*2F
$GPGSA,A,3,28,20,30,24,5,15,7,8,17,13,,,1.334,0.848,1.029*0E
$GPGSV,3,1,12,5,17,207,29,7,4,84,26,8,12,27,30,30,41,82,46*4D
$GPGSV,3,2,12,13,79,243,39,15,47,293,30,17,12,138,29,18,12,327,26*78
$GPGSV,3,3,12,20,32,258,28,24,10,266,21,28,65,92,43,11,4,64,0*79
$GPGGA,103831.34,5423.9227,N,01836.3672,E,1,10,0.848,43.065,M,30.639,M,0,0*5F
$GPRMC,103831.34,A,5423.9227,N,01836.3672,E,4.209,201.409,310317,0,W,A*32
$GPVTG,201.409,T,201.409,M,4.209,N,7.796,K,A*23
$GPGSA,A,3,28,20,30,24,5,15,7,8,17,13,,,1.334,0.848,1.029*0E
$GPGSV,3,1,12,5,17,207,29,7,4,84,28,8,12,27,29,30,41,82,46*4B
$GPGSV,3,2,12,13,79,243,38,15,47,293,26,17,12,138,28,18,12,327,27*7E
$GPGSV,3,3,12,20,32,258,28,24,10,266,21,28,65,92,43,11,4,64,0*79
$GPGGA,103832.34,5423.9211,N,01836.3659,E,1,10,0.848,43.305,M,30.639,M,0,0*55
$GPRMC,103832.34,A,5423.9211,N,01836.3659,E,8.664,208.286,310317,0,W,A*36
$GPVTG,208.286,T,208.286,M,8.664,N,16.046,K,A*1A
$GPGSA,A,3,28,20,30,24,5,15,7,8,17,13,,,1.334,0.848,1.029*0E
$GPGSV,3,1,12,5,17,207,28,7,4,84,27,8,12,27,31,11,4,64,23*75
$GPGSV,3,2,12,13,79,243,39,15,47,293,26,17,12,138,28,18,12,327,30*79
$GPGSV,3,3,12,20,32,258,25,24,10,266,20,28,65,92,41,30,41,82,46*7F
$GPGGA,103833.34,5423.9186,N,01836.3637,E,1,9,0.874,43.393,M,30.639,M,0,0*69
$GPRMC,103833.34,A,5423.9186,N,01836.3637,E,11.485,208.018,310317,0,W,A*02
$GPVTG,208.018,T,208.018,M,11.485,N,21.271,K,A*2D
$GPGSA,A,3,28,30,5,15,7,8,17,13,24,,,,1.350,0.874,1.029*01
$GPGSV,3,1,12,5,17,207,27,7,4,84,27,8,12,27,31,11,4,64,23*7A
$GPGSV,3,2,12,13,79,243,40,15,47,293,25,17,12,138,28,18,12,327,33*77
$GPGSV,3,3,12,20,32,258,25,24,10,266,19,28,65,92,41,30,41,82,46*75
$GPGGA,103834.34,5423.9155,N,01836.3604,E,1,9,0.884,43.590,M,30.639,M,0,0*6A
$GPRMC,103834.34,A,5423.9155,N,01836.3604,E,14.905,214.308,310317,0,W,A*04
$GPVTG,214.308,T,214.308,M,14.905,N,27.604,K,A*2D
$GPGSA,A,3,28,20,30,5,15,8,17,13,24,,,,1.441,0.884,1.137*32
$GPGSV,3,1,12,5,17,207,27,7,4,84,27,8,12,27,31,11,4,64,27*7E
$GPGSV,3,2,12,13,79,243,40,15,47,293,25,17,12,138,27,18,12,327,33*78
$GPGSV,3,3,12,20,32,258,25,24,10,266,20,28,65,92,40,30,41,82,46*7E
$GPGGA,103835.34,5423.9116,N,01836.3563,E,1,10,0.848,43.760,M,30.639,M,0,0*5B
$GPRMC,103835.34,A,5423.9116,N,01836.3563,E,17.859,212.177,310317,0,W,A*07
$GPVTG,212.177,T,212.177,M,17.859,N,33.074,K,A*22
$GPGSA,A,3,28,20,30,5,15,7,8,17,13,24,,,1.334,0.848,1.029*0E
$GPGSV,3,1,12,5,17,207,27,7,4,84,25,8,12,27,32,11,4,64,27*7F
$GPGSV,3,2,12,13,79,243,40,15,47,293,28,17,12,138,28,18,12,327,33*7A
$GPGSV,3,3,12,20,32,258,23,24,10,266,20,28,65,92,40,30,41,82,45*7B
$GPGGA,103836.34,5423.9072,N,01836.3517,E,1,10,0.848,43.795,M,30.639,M,0,0*52
$GPRMC,103836.34,A,5423.9072,N,01836.3517,E,18.979,211.788,310317,0,W,A*0D
$GPVTG,211.788,T,211.788,M,18.979,N,35.149,K,A*27
$GPGSA,A,3,28,20,30,24,5,15,8,17,13,7,,,1.334,0.848,1.029*0E
$GPGSV,3,1,12,5,17,207,28,7,4,84,19,8,12,27,33,11,4,64,27*7E
$GPGSV,3,2,12,13,79,243,39,15,47,293,30,17,12,138,28,18,12,327,32*7C
$GPGSV,3,3,12,20,32,258,22,24,10,266,20,28,65,92,41,30,41,82,45*7B
$GPGGA,103837.34,5423.9021,N,01836.3467,E,1,10,0.848,43.653,M,30.639,M,0,0*58
$GPRMC,103837.34,A,5423.9021,N,01836.3467,E,22.303,207.564,310317,0,W,A*05
$GPVTG,207.564,T,207.564,M,22.303,N,41.305,K,A*20
$GPGSA,A,3,28,30,24,5,15,7,8,17,13,20,,,1.333,0.848,1.029*09
$GPGSV,3,1,12,5,17,207,28,7,4,84,26,8,12,27,32,11,4,64,27*73
$GPGSV,3,2,12,13,79,243,39,15,47,293,31,17,12,138,28,18,12,327,31*7E
$GPGSV,3,3,12,20,32,258,28,24,10,266,21,28,65,92,41,30,41,82,46*73
$GPGGA,103838.34,5423.8962,N,01836.3419,E,1,10,0.848,43.993,M,30.639,M,0,0*52
$GPRMC,103838.34,A,5423.8962,N,01836.3419,E,24.031,206.465,310317,0,W,A*09
$GPVTG,206.465,T,206.465,M,24.031,N,44.505,K,A*27
$GPGSA,A,3,28,20,30,24,5,15,7,8,17,13,,,1.333,0.848,1.029*09
$GPGSV,3,1,12,5,17,207,28,7,4,84,25,8,12,27,32,11,4,64,27*70
$GPGSV,3,2,12,13,79,243,39,15,47,293,32,17,12,138,27,18,12,327,23*71
$GPGSV,3,3,12,20,32,258,34,24,10,266,22,28,65,92,41,30,41,82,45*7E
$GPGGA,103839.34,5423.8899,N,01836.3367,E,1,9,0.874,44.148,M,30.639,M,0,0*66
$GPRMC,103839.34,A,5423.8899,N,01836.3367,E,25.755,208.356,310317,0,W,A*0E
$GPVTG,208.356,T,208.356,M,25.755,N,47.699,K,A*26
$GPGSA,A,3,28,30,24,5,15,7,8,17,13,,,,1.350,0.874,1.029*01
$GPGSV,3,1,12,5,17,207,29,7,4,84,25,8,12,27,32,11,4,64,25*73
$GPGSV,3,2,12,13,79,243,39,15,47,293,38,17,12,138,26,18,12,327,20*79
$GPGSV,3,3,12,20,32,258,32,24,10,266,22,28,65,92,41,30,41,82,45*78
$GPGGA,103840.34,5423.8836,N,01836.3309,E,1,10,0.848,44.166,M,30.639,M,0,0*5E
$GPRMC,103840.34,A,5423.8836,N,01836.3309,E,25.490,210.459,310317,0,W,A*06
$GPVTG,210.459,T,210.459,M,25.490,N,47.207,K,A*2F
$GPGSA,A,3,28,20,30,24,5,15,7,8,17,13,,,1.333,0.848,1.029*09
$GPGSV,3,1,12,5,17,207,30,7,4,84,24,8,12,27,32,11,4,64,23*7C
$GPGSV,3,2,12,13,79,243,39,15,47,293,40,17,12,138,26,18,12,327,20*76
$GPGSV,3,3,12,20,32,258,31,24,10,266,23,28,65,92,41,30,41,82,45*7A
$GPGGA,103841.34,5423.8774,N,01836.3243,E,1,10,0.848,44.209,M,30.639,M,0,0*53
$GPRMC,103841.34,A,5423.8774,N,01836.3243,E,26.824,211.203,310317,0,W,A*09
$GPVTG,211.203,T,211.203,M,26.824,N,49.678,K,A*2D
$GPGSA,A,3,28,20,30,24,5,15,7,8,17,13,,,1.333,0.848,1.029*09
$GPGSV,3,1,12,5,17,207,30,7,4,84,21,8,12,27,32,11,4,64,23*79
$GPGSV,3,2,12,13,79,243,39,15,47,293,40,17,12,138,26,18,12,327,29*7F
$GPGSV,3,3,12,20,32,258,31,24,10,266,23,28,65,92,41,30,41,82,45*7A
$GPGGA,103842.34,5423.8709,N,01836.3176,E,1,9,0.884,44.427,M,30.639,M,0,0*6D
$GPRMC,103842.34,A,5423.8709,N,01836.3176,E,27.378,211.657,310317,0,W,A*03
$GPVTG,211.657,T,211.657,M,27.378,N,50.704,K,A*2C
$GPGSA,A,3,28,20,30,24,5,15,8,17,13,,,,1.441,0.884,1.138*3D
$GPGSV,3,1,12,5,17,207,30,7,4,84,20,8,12,27,33,11,4,64,23*79
$GPGSV,3,2,12,13,79,243,39,15,47,293,40,17,12,138,24,18,12,327,32*77
$GPGSV,3,3,12,20,32,258,26,24,10,266,22,28,65,92,41,30,41,82,46*7E
$GPGGA,103843.34,5423.8642,N,01836.3106,E,1,9,0.923,44.387,M,30.639,M,0,0*64
$GPRMC,103843.34,A,5423.8642,N,01836.3106,E,28.419,211.245,310317,0,W,A*03
$GPVTG,211.245,T,211.245,M,28.419,N,52.632,K,A*25
$GPGSA,A,3,28,20,30,5,15,7,8,17,13,,,,1.488,0.923,1.167*0F
$GPGSV,3,1,12,5,17,207,31,7,4,84,19,8,12,27,33,11,4,63,22*74
$GPGSV,3,2,12,13,79,243,39,15,47,293,41,17,12,138,25,18,12,327,32*77
$GPGSV,3,3,12,20,32,258,27,24,10,266,21,28,65,92,41,30,41,82,47*7D
$GPGGA,103844.34,5423.8575,N,01836.3033,E,1,10,0.848,44.529,M,30.639,M,0,0*55
$GPRMC,103844.34,A,5423.8575,N,01836.3033,E,27.986,211.556,310317,0,W,A*05
$GPVTG,211.556,T,211.556,M,27.986,N,51.830,K,A*2E
$GPGSA,A,3,28,20,30,24,5,15,7,8,17,13,,,1.333,0.848,1.029*09
$GPGSV,3,1,12,5,17,207,30,7,4,84,18,8,12,27,33,11,4,63,22*74
$GPGSV,3,2,12,13,79,243,39,15,47,293,40,17,12,138,25,18,12,327,32*76
$GPGSV,3,3,12,20,32,258,31,24,10,266,21,28,65,92,42,30,41,82,47*79
$GPGGA,103845.34,5423.8508,N,01836.2959,E,1,9,0.923,44.569,M,30.639,M,0,0*6A
$GPRMC,103845.34,A,5423.8508,N,01836.2959,E,28.507,212.281,310317,0,W,A*0E
$GPVTG,212.281,T,212.281,M,28.507,N,52.795,K,A*27
$GPGSA,A,3,28,20,30,5,15,7,8,17,13,,,,1.488,0.923,1.167*0F
$GPGSV,3,1,12,5,17,207,30,7,4,84,19,8,12,27,34,11,4,63,22*72
$GPGSV,3,2,12,13,79,243,40,15,47,293,40,17,12,138,24,18,12,327,32*79
$GPGSV,3,3,12,20,32,258,31,24,10,266,20,28,65,92,42,30,41,82,48*77
$GPGGA,103846.34,5423.8440,N,01836.2885,E,1,10,0.848,44.732,M,30.639,M,0,0*5C
$GPRMC,103846.34,A,5423.8440,N,01836.2885,E,28.651,212.137,310317,0,W,A*0E
$GPVTG,212.137,T,212.137,M,28.651,N,53.062,K,A*29
$GPGSA,A,3,28,20,30,24,5,15,7,8,17,13,,,1.333,0.848,1.029*09
$GPGSV,3,1,12,5,17,207,31,7,4,84,19,8,12,27,34,11,4,63,23*72
$GPGSV,3,2,12,13,79,243,40,15,47,293,42,17,12,138,23,18,12,327,28*77
$GPGSV,3,3,12,20,32,258,30,24,10,266,20,28,65,92,42,30,41,82,48*76
$GPGGA,103847.34,5423.8371,N,01836.2814,E,1,9,0.884,45.093,M,30.639,M,0,0*65
$GPRMC,103847.34,A,5423.8371,N,01836.2814,E,28.277,211.972,310317,0,W,A*08
$GPVTG,211.972,T,211.972,M,28.277,N,52.368,K,A*21
$GPGSA,A,3,28,20,30,24,5,15,8,13,17,,,,1.441,0.884,1.138*3D
$GPGSV,3,1,12,5,17,207,31,7,4,84,19,8,12,27,35,11,4,63,23*73
$GPGSV,3,2,12,13,79,243,40,15,47,293,42,17,12,138,22,18,12,327,21*7F
$GPGSV,3,3,12,20,32,258,31,24,10,266,22,28,65,92,42,30,41,82,48*75
$GPGGA,103848.34,5423.8303,N,01836.2743,E,1,10,0.848,45.311,M,30.639,M,0,0*53
$GPRMC,103848.34,A,5423.8303,N,01836.2743,E,27.800,212.133,310317,0,W,A*04
$GPVTG,212.133,T,212.133,M,27.800,N,51.486,K,A*20
$GPGSA,A,3,28,20,30,24,5,15,7,8,17,13,,,1.333,0.848,1.029*09
$GPGSV,3,1,12,5,17,207,31,7,4,84,18,8,12,27,35,11,4,63,23*72
$GPGSV,3,2,12,13,79,243,40,15,47,293,42,17,12,138,31,18,12,327,27*7B
$GPGSV,3,3,12,20,32,258,31,24,10,266,23,28,65,92,42,30,41,82,48*74
$GPGGA,103849.34,5423.8238,N,01836.2671,E,1,9,0.923,45.419,M,30.639,M,0,0*60
$GPRMC,103849.34,A,5423.8238,N,01836.2671,E,26.814,212.707,310317,0,W,A*09
$GPVTG,212.707,T,212.707,M,26.814,N,49.659,K,A*2D
$GPGSA,A,3,28,20,30,5,15,7,8,17,13,,,,1.487,0.923,1.166*01
$GPGSV,3,1,12,5,17,207,31,7,4,84,17,8,12,27,35,11,4,63,23*7D
$GPGSV,3,2,12,13,79,243,40,15,47,293,42,17,12,138,29,18,12,327,27*72
$GPGSV,3,3,12,20,32,258,28,24,10,266,22,28,65,92,43,30,41,82,48*7C
$GPGGA,103850.34,5423.8177,N,01836.2603,E,1,10,0.848,45.369,M,30.639,M,0,0*51
$GPRMC,103850.34,A,5423.8177,N,01836.2603,E,25.703,213.293,310317,0,W,A*0F
$GPVTG,213.293,T,213.293,M,25.703,N,47.602,K,A*27
$GPGSA,A,3,28,20,30,24,5,15,7,8,17,13,,,1.333,0.848,1.029*09
$GPGSV,3,1,12,5,17,207,31,7,4,84,17,8,12,27,35,11,4,63,22*7C
$GPGSV,3,2,12,13,79,242,40,15,47,293,41,17,12,138,28,18,12,327,27*71
$GPGSV,3,3,12,20,32,258,29,24,10,266,22,28,65,92,42,30,41,82,48*7C
$GPGGA,103851.34,5423.8118,N,01836.2538,E,1,8,0.953,45.577,M,30.639,M,0,0*69
$GPRMC,103851.34,A,5423.8118,N,01836.2538,E,23.980,213.348,310317,0,W,A*08
$GPVTG,213.348,T,213.348,M,23.980,N,44.411,K,A*27
$GPGSA,A,3,28,20,30,5,15,8,17,13,,,,,1.592,0.953,1.275*35
$GPGSV,3,1,12,5,17,207,30,7,4,84,17,8,12,27,35,11,4,63,21*7E
$GPGSV,3,2,12,13,79,242,39,15,47,293,40,17,12,138,28,18,12,327,20*79
$GPGSV,3,3,12,20,32,258,34,24,10,266,15,28,65,92,43,30,41,82,48*75
$GPGGA,103852.34,5423.8063,N,01836.2477,E,1,9,0.923,45.397,M,30.639,M,0,0*63
$GPRMC,103852.34,A,5423.8063,N,01836.2477,E,22.315,214.197,310317,0,W,A*0C
$GPVTG,214.197,T,214.197,M,22.315,N,41.328,K,A*28
$GPGSA,A,3,28,20,30,5,15,7,8,17,13,,,,1.487,0.923,1.166*01
$GPGSV,3,1,12,5,17,207,29,7,4,84,17,8,12,27,34,11,4,63,22*74
$GPGSV,3,2,12,13,79,242,39,15,47,293,40,17,12,138,27,18,12,327,22*74
$GPGSV,3,3,12,20,32,258,36,24,10,266,15,28,65,92,42,30,41,82,49*77
$GPGGA,103853.34,5423.8014,N,01836.2422,E,1,9,0.923,45.421,M,30.639,M,0,0*68
$GPRMC,103853.34,A,5423.8014,N,01836.2422,E,19.880,214.719,310317,0,W,A*02
$GPVTG,214.719,T,214.719,M,19.880,N,36.817,K,A*20
$GPGSA,A,3,28,20,30,5,15,7,8,17,13,,,,1.487,0.923,1.166*01
$GPGSV,3,1,12,5,17,207,28,7,4,84,19,8,12,27,34,11,4,63,21*78
$GPGSV,3,2,12,13,79,242,40,15,47,293,41,17,12,138,22,30,41,82,48*42
$GPGSV,3,3,12,20,32,258,37,24,10,266,13,28,65,92,43,18,12,327,0*7C
$GPGGA,103854.34,5423.7967,N,01836.2367,E,1,9,0.923,45.382,M,30.639,M,0,0*65
$GPRMC,103854.34,A,5423.7967,N,01836.2367,E,19.865,214.842,310317,0,W,A*0B
$GPVTG,214.842,T,214.842,M,19.865,N,36.790,K,A*2B
$GPGSA,A,3,28,20,30,5,15,7,8,17,13,,,,1.487,0.923,1.166*01
$GPGSV,3,1,12,5,17,207,28,7,4,84,19,8,12,27,34,11,4,63,22*7B
$GPGSV,3,2,12,13,79,242,40,15,47,293,42,17,12,138,21,30,41,82,49*43
$GPGSV,3,3,12,20,32,258,39,24,10,266,13,28,65,92,42,18,12,327,0*73
$GPGGA,103855.34,5423.7921,N,01836.2311,E,1,9,0.923,45.399,M,30.639,M,0,0*6D
$GPRMC,103855.34,A,5423.7921,N,01836.2311,E,20.113,214.547,310317,0,W,A*03
$GPVTG,214.547,T,214.547,M,20.113,N,37.249,K,A*29
$GPGSA,A,3,28,20,30,5,15,7,8,17,13,,,,1.487,0.923,1.166*01
$GPGSV,3,1,12,5,17,207,28,7,4,84,18,8,12,27,34,11,4,63,22*7A
$GPGSV,3,2,12,13,79,242,40,15,47,293,43,17,12,138,20,30,41,82,49*43
$GPGSV,3,3,12,20,32,258,40,24,10,266,14,28,65,92,43,18,12,327,0*7B
$GPGGA,103856.34,5423.7874,N,01836.2255,E,1,9,0.923,45.573,M,30.639,M,0,0*6C
$GPRMC,103856.34,A,5423.7874,N,01836.2255,E,20.198,214.563,310317,0,W,A*05
$GPVTG,214.563,T,214.563,M,20.198,N,37.406,K,A*27
$GPGSA,A,3,28,20,30,5,15,7,8,17,13,,,,1.487,0.923,1.166*01
$GPGSV,3,1,12,5,17,207,28,7,4,84,17,8,12,27,33,11,4,63,22*72
$GPGSV,3,2,12,13,79,242,41,15,47,293,43,17,12,138,21,30,41,82,49*43
$GPGSV,3,3,12,20,32,258,40,24,10,266,15,28,65,92,43,18,12,327,0*7A
$GPGGA,103857.34,5423.7827,N,01836.2200,E,1,9,0.923,45.598,M,30.639,M,0,0*6E
$GPRMC,103857.34,A,5423.7827,N,01836.2200,E,20.116,214.975,310317,0,W,A*0F
$GPVTG,214.975,T,214.975,M,20.116,N,37.255,K,A*21
$GPGSA,A,3,28,20,30,5,15,7,8,17,13,,,,1.487,0.923,1.166*01
$GPGSV,3,1,12,5,17,207,28,7,4,84,18,8,12,27,34,11,4,63,22*7A
$GPGSV,3,2,12,13,79,242,41,15,47,293,44,17,12,138,21,30,41,82,48*45
$GPGSV,3,3,12,20,32,258,40,24,10,266,15,28,65,92,42,18,12,327,0*7B
$GPGGA,103858.34,5423.7780,N,01836.2146,E,1,10,0.848,45.495,M,30.639,M,0,0*5A
$GPRMC,103858.34,A,5423.7780,N,01836.2146,E,20.092,215.101,310317,0,W,A*04
$GPVTG,215.101,T,215.101,M,20.092,N,37.211,K,A*2C
$GPGSA,A,3,28,20,30,24,5,15,7,8,17,13,,,1.333,0.848,1.029*09
$GPGSV,3,1,12,5,17,207,28,7,4,84,16,8,12,27,33,11,4,63,22*73
$GPGSV,3,2,12,13,79,242,40,15,47,293,45,17,12,138,21,30,41,82,49*44
$GPGSV,3,3,12,20,32,258,40,24,10,266,16,28,65,92,42,18,12,327,0*78
$GPGGA,103859.34,5423.7733,N,01836.2090,E,1,9,1.002,45.317,M,30.639,M,0,0*6B
$GPRMC,103859.34,A,5423.7733,N,01836.2090,E,21.066,214.920,310317,0,W,A*07
$GPVTG,214.920,T,214.920,M,21.066,N,39.014,K,A*2F
$GPGSA,A,3,28,20,30,24,5,15,7,8,13,,,,1.459,1.002,1.061*0F
$GPGSV,3,1,12,5,17,207,28,7,4,84,16,8,12,27,34,11,4,63,21*77
$GPGSV,3,2,12,13,79,242,40,15,47,293,45,17,12,138,21,30,41,82,48*45
$GPGSV,3,3,12,20,32,258,40,24,10,266,20,28,65,92,42,18,12,327,0*7D
$GPGGA,103900.34,5423.7684,N,01836.2031,E,1,10,0.848,45.128,M,30.639,M,0,0*51
$GPRMC,103900.34,A,5423.7684,N,01836.2031,E,20.853,214.458,310317,0,W,A*01
$GPVTG,214.458,T,214.458,M,20.853,N,38.620,K,A*20
$GPGSA,A,3,28,20,30,24,5,15,7,8,17,13,,,1.333,0.848,1.029*09
$GPGSV,3,1,12,5,17,207,28,7,4,84,17,8,12,27,34,11,4,63,20*77
$GPGSV,3,2,12,13,79,242,40,15,47,293,44,17,12,138,20,18,12,327,35*7F
$GPGSV,3,3,12,20,32,258,39,24,10,266,23,28,65,92,42,30,41,82,48*7C
$GPGGA,103901.34,5423.7635,N,01836.1973,E,1,10,0.848,44.886,M,30.639,M,0,0*5A
$GPRMC,103901.34,A,5423.7635,N,01836.1973,E,21.681,213.426,310317,0,W,A*08
$GPVTG,213.426,T,213.426,M,21.681,N,40.152,K,A*2D
$GPGSA,A,3,28,20,30,24,5,15,7,8,17,13,,,1.333,0.848,1.029*09
$GPGSV,3,1,12,5,17,207,27,7,4,84,17,8,12,27,34,11,4,63,20*78
$GPGSV,3,2,12,13,79,242,39,15,47,293,44,17,12,138,20,18,12,327,34*70
$GPGSV,3,3,12,20,32,258,39,24,10,266,23,28,65,92,42,30,41,82,47*73
$GPGGA,103902.34,5423.7584,N,01836.1916,E,1,10,0.848,44.692,M,30.639,M,0,0*58
$GPRMC,103902.34,A,5423.7584,N,01836.1916,E,22.366,214.347,310317,0,W,A*09
$GPVTG,214.347,T,214.347,M,22.366,N,41.423,K,A*20
$GPGSA,A,3,28,20,30,24,5,15,7,8,17,13,,,1.333,0.848,1.029*09
$GPGSV,3,1,12,5,17,207,27,7,4,84,15,8,12,27,34,11,4,63,20*7A
$GPGSV,3,2,12,13,79,242,39,15,47,293,44,17,12,138,19,18,12,327,34*7A
$GPGSV,3,3,12,20,32,258,39,24,10,266,23,28,65,92,42,30,41,82,47*73
$GPGGA,103903.34,5423.7531,N,01836.1857,E,1,10,0.848,44.645,M,30.639,M,0,0*59
$GPRMC,103903.34,A,5423.7531,N,01836.1857,E,22.792,214.308,310317,0,W,A*06
$GPVTG,214.308,T,214.308,M,22.792,N,42.212,K,A*28
$GPGSA,A,3,28,20,30,24,5,15,7,8,17,13,,,1.333,0.848,1.029*09
$GPGSV,3,1,12,5,17,207,28,7,4,84,15,8,12,27,35,11,4,63,20*74
$GPGSV,3,2,12,13,79,242,40,15,47,293,43,17,12,138,19,18,12,327,35*72
$GPGSV,3,3,12,20,32,258,39,24,10,266,23,28,65,92,42,30,41,82,47*73
$GPGGA,103904.34,5423.7476,N,01836.1795,E,1,10,0.848,44.540,M,30.639,M,0,0*5B
$GPRMC,103904.34,A,5423.7476,N,01836.1795,E,23.476,213.397,310317,0,W,A*0B
$GPVTG,213.397,T,213.397,M,23.476,N,43.477,K,A*24
$GPGSA,A,3,28,20,30,24,5,15,8,17,13,7,,,1.333,0.848,1.029*09
$GPGSV,3,1,12,5,17,207,29,7,4,84,15,8,12,27,34,11,4,63,20*74
$GPGSV,3,2,12,13,79,242,39,15,47,293,43,17,12,138,19,18,12,327,34*7D
$GPGSV,3,3,12,20,32,258,39,24,10,266,23,28,65,92,42,30,41,82,47*73
$GPGGA,103905.34,5423.7419,N,01836.1732,E,1,10,0.848,44.427,M,30.639,M,0,0*5E
$GPRMC,103905.34,A,5423.7419,N,01836.1732,E,24.496,211.990,310317,0,W,A*08
$GPVTG,211.990,T,211.990,M,24.496,N,45.367,K,A*2D
$GPGSA,A,3,28,20,30,5,15,7,8,17,13,24,,,1.333,0.848,1.029*09
$GPGSV,3,1,12,5,17,207,29,7,4,84,24,8,12,27,34,11,4,63,20*76
$GPGSV,3,2,12,13,79,242,39,15,47,293,43,17,12,138,21,30,41,82,46*43
$GPGSV,3,3,12,20,32,258,39,24,10,266,23,28,65,92,42,18,12,327,0*70
$GPGGA,103906.34,5423.7360,N,01836.1670,E,1,8,1.104,44.151,M,30.639,M,0,0*6E
$GPRMC,103906.34,A,5423.7360,N,01836.1670,E,25.188,212.145,310317,0,W,A*0D
$GPVTG,212.145,T,212.145,M,25.188,N,46.647,K,A*22
$GPGSA,A,3,28,20,30,24,5,15,8,13,,,,,1.692,1.104,1.282*35
$GPGSV,3,1,12,5,17,207,32,7,4,84,22,8,12,27,34,11,4,63,19*70
$GPGSV,3,2,12,13,79,242,39,15,47,293,42,17,12,138,21,30,41,82,47*43
$GPGSV,3,3,12,20,32,258,39,24,10,266,23,28,65,92,42,18,12,327,0*70
$GPGGA,103907.34,5423.7298,N,01836.1606,E,1,9,1.002,43.281,M,30.639,M,0,0*67
$GPRMC,103907.34,A,5423.7298,N,01836.1606,E,26.512,211.258,310317,0,W,A*03
$GPVTG,211.258,T,211.258,M,26.512,N,49.100,K,A*2D
$GPGSA,A,3,28,20,30,24,5,15,7,8,13,,,,1.459,1.002,1.061*0F
$GPGSV,3,1,12,5,17,207,34,7,4,84,22,8,12,27,34,11,4,63,19*76
$GPGSV,3,2,12,13,79,242,39,15,47,293,43,17,12,138,20,30,41,82,47*43
$GPGSV,3,3,12,20,32,258,39,24,10,266,23,28,65,92,41,18,12,327,0*73
$GPGGA,103908.34,5423.7234,N,01836.1539,E,1,8,1.104,42.730,M,30.639,M,0,0*69
$GPRMC,103908.34,A,5423.7234,N,01836.1539,E,26.575,212.232,310317,0,W,A*0B
$GPVTG,212.232,T,212.232,M,26.575,N,49.216,K,A*28
$GPGSA,A,3,28,20,30,24,5,15,8,13,,,,,1.692,1.104,1.282*35
$GPGSV,3,1,12,5,17,207,34,7,4,84,20,8,12,27,34,11,4,63,19*74
$GPGSV,3,2,12,13,79,242,39,15,47,293,43,17,12,138,21,30,41,82,46*43
$GPGSV,3,3,12,20,32,258,39,24,10,266,22,28,65,92,41,18,12,327,0*72
$GPGGA,103909.34,5423.7170,N,01836.1471,E,1,9,0.884,41.960,M,30.639,M,0,0*6F
$GPRMC,103909.34,A,5423.7170,N,01836.1471,E,27.036,212.314,310317,0,W,A*02
$GPVTG,212.314,T,212.314,M,27.036,N,50.070,K,A*21
$GPGSA,A,3,28,20,30,24,5,15,8,17,13,,,,1.441,0.884,1.138*3D
$GPGSV,3,1,12,5,17,207,33,7,4,84,17,8,12,27,34,30,41,82,46*40
$GPGSV,3,2,12,13,79,242,40,15,47,293,42,17,12,138,22,28,65,92,41*46
$GPGSV,3,3,12,20,32,258,38,24,10,266,22,18,12,327,0,11,4,63,0*75
$GPGGA,103910.34,5423.7104,N,01836.1402,E,1,9,0.884,41.276,M,30.639,M,0,0*6C
$GPRMC,103910.34,A,5423.7104,N,01836.1402,E,27.505,212.764,310317,0,W,A*0B
$GPVTG,212.764,T,212.764,M,27.505,N,50.939,K,A*20
$GPGSA,A,3,28,20,30,24,5,15,8,17,13,,,,1.441,0.884,1.138*3D
$GPGSV,3,1,12,5,17,207,33,7,4,84,14,8,12,27,33,30,41,82,46*44
$GPGSV,3,2,12,13,79,242,39,15,47,293,42,17,12,138,22,28,65,92,40*49
$GPGSV,3,3,12,20,32,258,38,24,10,266,21,18,12,327,0,11,4,63,0*76
$GPGGA,103911.34,5423.7038,N,01836.1330,E,1,9,0.884,40.864,M,30.639,M,0,0*6D
$GPRMC,103911.34,A,5423.7038,N,01836.1330,E,28.103,212.766,310317,0,W,A*0D
$GPVTG,212.766,T,212.766,M,28.103,N,52.047,K,A*2F
$GPGSA,A,3,28,20,30,24,5,15,8,17,13,,,,1.441,0.884,1.138*3D
$GPGSV,3,1,12,5,17,207,32,7,4,84,14,8,12,27,34,11,4,63,19*75
$GPGSV,3,2,12,13,79,242,40,15,47,293,43,17,12,138,23,30,41,82,44*4D
$GPGSV,3,3,12,20,32,258,39,24,10,266,21,28,65,92,39,18,12,327,0*7E
$GPGGA,103912.34,5423.6972,N,01836.1258,E,1,9,0.884,40.470,M,30.639,M,0,0*6E
$GPRMC,103912.34,A,5423.6972,N,01836.1258,E,28.242,211.383,310317,0,W,A*0D
$GPVTG,211.383,T,211.383,M,28.242,N,52.304,K,A*2D
$GPGSA,A,3,28,20,30,24,5,15,8,17,13,,,,1.441,0.884,1.138*3D
$GPGSV,3,1,12,5,17,207,26,7,4,84,14,8,12,27,34,11,4,63,19*70
$GPGSV,3,2,12,13,79,242,40,15,47,293,43,17,12,138,24,30,41,82,43*4D
$GPGSV,3,3,12,20,32,258,40,24,10,266,21,28,65,92,37,18,12,327,0*7E
$GPGGA,103913.34,5423.6905,N,01836.1188,E,1,8,0.952,39.951,M,30.639,M,0,0*6A
$GPRMC,103913.34,A,5423.6905,N,01836.1188,E,27.542,211.384,310317,0,W,A*0D
$GPVTG,211.384,T,211.384,M,27.542,N,51.007,K,A*26
$GPGSA,A,3,28,20,30,5,15,8,17,13,,,,,1.590,0.952,1.274*37
$GPGSV,3,1,12,5,17,207,26,7,4,84,18,8,12,27,34,11,4,63,19*7C
$GPGSV,3,2,12,13,79,241,39,15,47,293,43,17,12,138,26,30,41,82,41*40
$GPGSV,3,3,12,20,32,258,40,24,10,266,20,28,65,92,35,18,12,327,0*7D
$GPGGA,103914.34,5423.6840,N,01836.1121,E,1,8,0.952,39.581,M,30.639,M,0,0*6F
$GPRMC,103914.34,A,5423.6840,N,01836.1121,E,26.229,211.003,310317,0,W,A*0E
$GPVTG,211.003,T,211.003,M,26.229,N,48.576,K,A*26
$GPGSA,A,3,28,20,30,5,15,8,17,13,,,,,1.590,0.952,1.273*30
$GPGSV,3,1,12,5,17,207,25,7,4,84,19,8,12,27,33,11,4,63,19*79
$GPGSV,3,2,12,13,79,241,39,15,47,293,43,17,12,138,27,30,41,82,33*44
$GPGSV,3,3,12,20,32,258,40,24,10,266,19,28,65,92,24,18,12,327,0*77
$GPGGA,103915.34,5423.6777,N,01836.1052,E,1,9,0.923,39.170,M,30.639,M,0,0*6D
$GPRMC,103915.34,A,5423.6777,N,01836.1052,E,26.785,212.282,310317,0,W,A*0A
$GPVTG,212.282,T,212.282,M,26.785,N,49.606,K,A*20
$GPGSA,A,3,28,20,30,5,15,8,17,13,7,,,,1.485,0.923,1.164*01
$GPGSV,3,1,12,5,17,207,24,30,41,82,32,8,12,27,33,28,65,92,23*48
$GPGSV,3,2,12,13,79,241,39,15,47,293,43,17,12,138,27,24,10,266,18*74
$GPGSV,3,3,12,20,32,258,39,18,12,327,0,11,4,63,0,7,4,84,0*7E
$GPGGA,103916.34,5423.6722,N,01836.0983,E,1,6,1.170,38.588,M,30.639,M,0,0*68
$GPRMC,103916.34,A,5423.6722,N,01836.0983,E,26.785,212.281,310317,0,W,A*0E
$GPVTG,212.281,T,212.281,M,26.785,N,49.606,K,A*20
$GPGSA,A,3,20,30,7,8,17,13,,,,,,,1.938,1.170,1.545*39
$GPGSV,3,1,12,5,17,207,21,7,4,84,16,8,12,27,33,30,41,83,32*47
$GPGSV,3,2,12,13,79,241,37,15,47,293,41,17,12,138,26,28,65,92,21*44
$GPGSV,3,3,12,20,32,258,38,24,10,266,19,18,12,327,0,11,4,63,0*7D
$GPGGA,103917.34,5423.6665,N,01836.0923,E,1,8,1.068,38.595,M,30.639,M,0,0*6B
$GPRMC,103917.34,A,5423.6665,N,01836.0923,E,23.190,209.192,310317,0,W,A*0B
$GPVTG,209.192,T,209.192,M,23.190,N,42.947,K,A*26
$GPGSA,A,3,28,20,30,5,15,8,13,7,,,,,1.598,1.068,1.189*0E
$GPGSV,3,1,12,5,17,207,16,7,4,84,17,8,12,27,30,11,4,63,18*75
$GPGSV,3,2,12,13,79,241,35,15,47,293,38,17,12,138,14,30,41,83,30*46
$GPGSV,3,3,12,20,32,258,35,24,10,266,19,28,65,92,20,18,13,327,0*70
$GPGGA,103918.34,5423.6624,N,01836.0870,E,1,8,1.037,37.901,M,30.639,M,0,0*62
$GPRMC,103918.34,A,5423.6624,N,01836.0870,E,20.441,211.301,310317,0,W,A*0D
$GPVTG,211.301,T,211.301,M,20.441,N,37.857,K,A*2E
$GPGSA,A,3,28,20,24,15,8,13,7,5,,,,,1.499,1.037,1.083*0A
$GPGSV,3,1,12,5,17,207,14,7,4,84,13,8,12,27,30,11,4,63,19*72
$GPGSV,3,2,12,13,79,241,32,15,47,293,23,17,12,138,14,30,41,83,28*42
$GPGSV,3,3,12,20,32,258,30,24,10,266,21,28,65,92,18,18,13,327,0*75
$GPGGA,103919.34,5423.6581,N,01836.0839,E,1,8,1.036,37.189,M,30.639,M,0,0*6B
$GPRMC,103919.34,A,5423.6581,N,01836.0839,E,17.946,205.068,310317,0,W,A*0A
$GPVTG,205.068,T,205.068,M,17.946,N,33.236,K,A*29
$GPGSA,A,3,28,20,24,15,8,13,7,5,,,,,1.499,1.036,1.083*0B
$GPGSV,3,1,12,5,17,207,13,7,4,84,18,8,12,27,30,11,4,63,19*7E
$GPGSV,3,2,12,13,79,241,18,15,47,293,21,17,12,138,16,30,41,83,20*42
$GPGSV,3,3,12,20,32,258,22,24,10,266,21,28,65,92,14,18,13,327,0*7A
$GPGGA,103920.34,5423.6558,N,01836.0842,E,1,10,0.848,36.691,M,30.639,M,0,0*5F
$GPRMC,103920.34,A,5423.6558,N,01836.0842,E,13.022,193.748,310317,0,W,A*0E
$GPVTG,193.748,T,193.748,M,13.022,N,24.117,K,A*20
$GPGSA,A,3,28,20,30,24,15,8,17,13,7,5,,,1.333,0.848,1.029*09
$GPGSV,3,1,12,5,17,207,12,7,4,84,18,8,12,27,29,11,4,63,19*77
$GPGSV,3,2,12,13,79,241,19,15,47,293,41,17,12,138,15,30,41,83,15*40
$GPGSV,3,3,12,20,32,258,23,24,10,266,20,28,65,92,13,18,13,327,0*7D
$GPGGA,103921.34,5423.6567,N,01836.0851,E,1,8,0.926,34.845,M,30.639,M,0,0*65
$GPRMC,103921.34,A,5423.6567,N,01836.0851,E,6.007,185.043,310317,0,W,A*39
$GPVTG,185.043,T,185.043,M,6.007,N,11.125,K,A*14
$GPGSA,A,3,28,20,24,15,5,8,17,13,,,,,1.475,0.926,1.148*37
$GPGSV,3,1,12,30,41,83,14,7,4,84,19,8,12,27,33,28,65,92,14*4E
$GPGSV,3,2,12,13,79,241,20,15,47,293,45,17,12,138,23,24,10,266,20*75
$GPGSV,3,3,12,20,32,258,25,18,13,327,0,11,4,63,0,5,17,207,0*7B
$GPGGA,103922.34,5423.6557,N,01836.0855,E,1,9,0.884,34.389,M,30.639,M,0,0*62
$GPRMC,103922.34,A,5423.6557,N,01836.0855,E,5.381,176.749,310317,0,W,A*32
$GPVTG,176.749,T,176.749,M,5.381,N,9.965,K,A*2F
$GPGSA,A,3,28,20,30,24,15,5,8,17,13,,,,1.441,0.884,1.139*3C
$GPGSV,3,1,12,5,17,207,19,7,4,84,19,8,12,27,33,30,41,83,16*45
$GPGSV,3,2,12,13,79,241,20,15,47,293,46,17,12,138,23,28,65,92,20*41
$GPGSV,3,3,12,20,32,258,33,24,10,266,20,18,13,327,0,11,4,63,0*7D
$GPGGA,103923.34,5423.6534,N,01836.0878,E,1,9,0.884,33.020,M,30.639,M,0,0*6E
$GPRMC,103923.34,A,5423.6534,N,01836.0878,E,7.710,153.283,310317,0,W,A*33
$GPVTG,153.283,T,153.283,M,7.710,N,14.279,K,A*1B
$GPGSA,A,3,28,20,30,24,15,8,17,13,5,,,,1.441,0.884,1.139*3C
$GPGSV,3,1,12,5,17,207,26,7,4,84,20,8,12,27,32,11,4,63,20*7B
$GPGSV,3,2,12,13,79,241,22,15,47,293,46,17,12,138,23,30,41,83,17*48
$GPGSV,3,3,12,20,32,258,36,24,10,266,19,28,65,92,22,18,13,327,0*71
$GPGGA,103924.34,5423.6520,N,01836.0904,E,1,10,0.848,33.093,M,30.639,M,0,0*56
$GPRMC,103924.34,A,5423.6520,N,01836.0904,E,4.326,62.808,310317,0,W,A*03
$GPVTG,62.808,T,62.808,M,4.326,N,8.011,K,A*28
$GPGSA,A,3,28,20,30,24,15,7,8,17,13,5,,,1.333,0.848,1.029*09
$GPGSV,3,1,12,5,17,207,38,7,4,84,19,8,12,27,32,11,4,63,19*74
$GPGSV,3,2,12,13,79,241,27,15,47,293,46,17,12,138,23,30,41,83,17*4D
$GPGSV,3,3,12,20,32,258,36,24,10,266,22,28,65,92,22,18,13,327,0*79
$GPGGA,103925.34,5423.6526,N,01836.0925,E,1,9,1.119,34.216,M,30.639,M,0,0*6E
$GPRMC,103925.34,A,5423.6526,N,01836.0925,E,3.930,43.276,310317,0,W,A*0D
$GPVTG,43.276,T,43.276,M,3.930,N,7.278,K,A*20
$GPGSA,A,3,28,20,30,24,15,7,17,13,5,,,,1.607,1.119,1.154*34
$GPGSV,3,1,12,5,17,207,37,7,4,84,19,8,12,27,31,11,4,63,19*78
$GPGSV,3,2,12,13,79,241,26,15,47,293,45,17,12,138,24,30,41,83,17*48
$GPGSV,3,3,12,20,32,258,36,24,10,266,26,28,65,92,22,18,13,327,0*7D
$GPGGA,103926.34,5423.6532,N,01836.0939,E,1,8,0.907,33.631,M,30.639,M,0,0*64
$GPRMC,103926.34,A,5423.6532,N,01836.0939,E,4.100,50.990,310317,0,W,A*0B
$GPVTG,50.990,T,50.990,M,4.100,N,7.594,K,A*29
$GPGSA,A,3,20,24,15,7,8,17,13,5,,,,,1.594,0.907,1.311*09
$GPGSV,3,1,12,5,17,207,36,7,4,84,17,8,12,27,15,11,4,63,19*71
$GPGSV,3,2,12,13,79,241,26,15,47,293,40,17,12,138,22,30,41,83,17*4B
$GPGSV,3,3,12,20,32,258,36,24,10,266,27,28,65,91,13,18,13,327,0*7D
$GPGGA,103927.34,5423.6535,N,01836.0959,E,1,8,0.907,32.077,M,30.639,M,0,0*61
$GPRMC,103927.34,A,5423.6535,N,01836.0959,E,6.781,64.694,310317,0,W,A*0A
$GPVTG,64.694,T,64.694,M,6.781,N,12.559,K,A*11
$GPGSA,A,3,20,24,15,7,8,17,13,5,,,,,1.594,0.907,1.311*09
$GPGSV,3,1,12,5,17,207,35,7,4,84,16,8,12,27,15,30,41,83,16*40
$GPGSV,3,2,12,13,79,241,26,15,47,293,37,17,12,138,21,28,65,91,13*40
$GPGSV,3,3,12,20,32,258,34,24,10,266,26,18,13,327,0,11,4,63,0*7C
$GPGGA,103928.34,5423.6566,N,01836.1006,E,1,5,1.555,31.391,M,30.639,M,0,0*65
$GPRMC,103928.34,A,5423.6566,N,01836.1006,E,6.781,64.694,310317,0,W,A*01
$GPVTG,64.694,T,64.694,M,6.781,N,12.559,K,A*11
$GPGSA,A,3,20,24,5,8,13,,,,,,,,2.189,1.555,1.541*3E
$GPGSV,3,1,12,5,17,207,35,7,4,84,16,8,12,27,15,30,41,83,13*45
$GPGSV,3,2,12,13,79,241,25,15,47,293,27,17,12,138,20,28,65,91,13*43
$GPGSV,3,3,12,20,32,258,24,24,10,266,26,18,13,327,0,11,4,63,0*7D
$GPGGA,103929.34,5423.6593,N,01836.1058,E,1,6,1.067,31.061,M,30.639,M,0,0*6E
$GPRMC,103929.34,A,5423.6593,N,01836.1058,E,15.559,46.228,310317,0,W,A*37
$GPVTG,46.228,T,46.228,M,15.559,N,28.816,K,A*2B
$GPGSA,A,3,20,30,5,17,13,8,,,,,,,1.850,1.067,1.511*32
$GPGSV,3,1,12,5,17,207,32,7,4,84,13,8,12,27,14,11,4,63,19*70
$GPGSV,3,2,12,13,79,241,15,15,47,293,14,17,12,138,19,30,41,83,21*47
$GPGSV,3,3,12,20,32,258,22,24,10,266,25,28,65,91,15,18,13,327,0*7C
$GPGGA,103930.34,5423.6631,N,01836.1124,E,1,7,1.227,31.838,M,30.639,M,0,0*64
$GPRMC,103930.34,A,5423.6631,N,01836.1124,E,17.155,47.115,310317,0,W,A*38
$GPVTG,47.115,T,47.115,M,17.155,N,31.771,K,A*27
$GPGSA,A,3,28,5,7,17,13,8,30,,,,,,1.713,1.227,1.196*08
$GPGSV,3,1,12,5,17,207,31,7,4,84,13,8,12,27,14,11,4,63,20*79
$GPGSV,3,2,12,13,79,241,27,15,47,293,14,17,12,138,13,30,41,83,21*4C
$GPGSV,3,3,12,20,32,258,21,24,10,266,17,28,65,91,28,18,13,327,0*70
$GPGGA,103931.34,5423.6681,N,01836.1170,E,1,9,0.884,31.667,M,30.639,M,0,0*67
$GPRMC,103931.34,A,5423.6681,N,01836.1170,E,18.509,32.569,310317,0,W,A*3C
$GPVTG,32.569,T,32.569,M,18.509,N,34.279,K,A*2D
$GPGSA,A,3,28,30,24,5,13,20,15,8,17,,,,1.441,0.884,1.139*3C
$GPGSV,3,1,12,5,17,207,29,7,4,84,13,8,12,27,13,11,4,63,19*7D
$GPGSV,3,2,12,13,79,241,36,15,47,293,20,17,12,138,24,30,41,83,43*4B
$GPGSV,3,3,12,20,32,258,23,24,10,266,16,28,65,91,33,18,13,327,0*79
$GPGGA,103932.34,5423.6731,N,01836.1224,E,1,9,0.884,31.539,M,30.639,M,0,0*64
$GPRMC,103932.34,A,5423.6731,N,01836.1224,E,19.579,29.138,310317,0,W,A*3B
$GPVTG,29.138,T,29.138,M,19.579,N,36.260,K,A*21
$GPGSA,A,3,28,30,24,5,17,8,13,20,15,,,,1.441,0.884,1.139*3C
$GPGSV,3,1,12,5,17,207,28,7,4,84,13,8,12,27,15,11,4,63,20*70
$GPGSV,3,2,12,13,79,241,40,15,47,293,26,17,12,138,35,18,13,327,23*7A
$GPGSV,3,3,12,20,32,258,32,24,10,266,18,28,65,91,35,30,41,83,43*76
$GPGGA,103933.34,5423.6780,N,01836.1293,E,1,9,0.884,32.354,M,30.639,M,0,0*6D
$GPRMC,103933.34,A,5423.6780,N,01836.1293,E,20.509,30.351,310317,0,W,A*34
$GPVTG,30.351,T,30.351,M,20.509,N,37.982,K,A*2A
$GPGSA,A,3,28,30,24,5,17,8,13,20,15,,,,1.441,0.884,1.139*3C
$GPGSV,3,1,12,5,17,207,30,30,41,83,43,8,12,27,18,28,65,91,36*44
$GPGSV,3,2,12,13,79,241,42,15,47,293,26,17,12,138,34,18,13,327,23*79
$GPGSV,3,3,12,20,32,258,32,24,10,266,20,11,4,63,0,7,4,84,0*4E
$GPGGA,103934.34,5423.6831,N,01836.1361,E,1,9,0.884,32.077,M,30.639,M,0,0*61
$GPRMC,103934.34,A,5423.6831,N,01836.1361,E,20.737,30.474,310317,0,W,A*35
$GPVTG,30.474,T,30.474,M,20.737,N,38.405,K,A*28
$GPGSA,A,3,28,30,24,5,17,15,20,8,13,,,,1.441,0.884,1.139*3C
$GPGSV,3,1,12,5,17,207,31,30,41,83,42,8,12,27,24,28,65,91,36*4B
$GPGSV,3,2,12,13,79,241,44,15,47,293,25,17,12,138,33,24,10,266,24*74
$GPGSV,3,3,12,20,32,258,32,18,13,327,0,11,4,63,0,7,4,84,0*74
$GPGGA,103935.34,5423.6877,N,01836.1431,E,1,9,0.884,35.863,M,30.639,M,0,0*6A
$GPRMC,103935.34,A,5423.6877,N,01836.1431,E,20.974,29.434,310317,0,W,A*31
$GPVTG,29.434,T,29.434,M,20.974,N,38.845,K,A*29
$GPGSA,A,3,28,13,30,24,5,17,15,20,8,,,,1.441,0.884,1.139*3C
$GPGSV,3,1,12,5,17,207,33,7,4,84,24,8,12,27,24,11,4,63,19*76
$GPGSV,3,2,12,13,79,241,45,15,47,293,28,17,12,138,32,30,41,83,42*41
$GPGSV,3,3,12,20,32,258,32,24,10,266,25,28,65,91,36,18,13,327,0*7C
$GPGGA,103936.34,5423.6930,N,01836.1496,E,1,9,0.884,35.794,M,30.639,M,0,0*61
$GPRMC,103936.34,A,5423.6930,N,01836.1496,E,21.093,28.983,310317,0,W,A*3C
$GPVTG,28.983,T,28.983,M,21.093,N,39.063,K,A*25
$GPGSA,A,3,28,13,30,24,5,17,15,20,8,,,,1.441,0.884,1.139*3C
$GPGSV,3,1,12,5,17,207,34,30,41,83,40,8,12,27,26,11,4,63,19*73
$GPGSV,3,2,12,13,79,241,44,15,47,293,28,17,12,138,32,18,13,327,26*72
$GPGSV,3,3,12,20,32,258,33,24,10,266,26,28,65,91,35,7,4,84,0*4F
$GPGGA,103937.34,5423.6979,N,01836.1558,E,1,9,0.884,36.263,M,30.639,M,0,0*60
$GPRMC,103937.34,A,5423.6979,N,01836.1558,E,19.825,30.645,310317,0,W,A*31
$GPVTG,30.645,T,30.645,M,19.825,N,36.716,K,A*21
$GPGSA,A,3,28,13,30,24,5,17,15,20,8,,,,1.441,0.884,1.139*3C
$GPGSV,3,1,12,5,17,207,35,30,41,83,38,8,12,27,27,11,4,63,20*76
$GPGSV,3,2,12,13,79,240,44,15,47,293,30,17,12,138,28,18,13,327,25*72
$GPGSV,3,3,12,20,32,258,32,24,10,266,26,28,65,91,35,7,4,84,0*4E
$GPGGA,103938.34,5423.7022,N,01836.1614,E,1,9,0.884,38.317,M,30.639,M,0,0*6E
$GPRMC,103938.34,A,5423.7022,N,01836.1614,E,18.444,30.623,310317,0,W,A*39
$GPVTG,30.623,T,30.623,M,18.444,N,34.159,K,A*24
$GPGSA,A,3,28,13,30,24,5,17,15,20,8,,,,1.441,0.884,1.139*3C
$GPGSV,3,1,12,5,17,207,36,30,41,83,37,8,12,27,27,11,4,63,19*70
$GPGSV,3,2,12,13,79,240,44,15,47,293,33,17,12,138,22,28,65,91,33*40
$GPGSV,3,3,12,20,32,258,35,24,10,266,26,18,13,327,0,7,4,84,0*43
$GPGGA,103939.34,5423.7066,N,01836.1662,E,1,9,0.884,39.094,M,30.639,M,0,0*67
$GPRMC,103939.34,A,5423.7066,N,01836.1662,E,16.852,30.513,310317,0,W,A*3C
$GPVTG,30.513,T,30.513,M,16.852,N,31.210,K,A*2A
$GPGSA,A,3,28,13,30,24,5,17,15,20,8,,,,1.442,0.884,1.139*3F
$GPGSV,3,1,12,5,17,207,35,30,41,83,38,8,12,27,27,28,65,91,34*43
$GPGSV,3,2,12,13,79,240,44,15,47,293,34,17,12,138,23,24,10,266,25*75
$GPGSV,3,3,12,20,32,258,37,18,13,327,0,11,4,63,0,7,4,84,0*71
$GPGGA,103940.34,5423.7107,N,01836.1705,E,1,9,0.883,38.962,M,30.639,M,0,0*69
$GPRMC,103940.34,A,5423.7107,N,01836.1705,E,15.223,31.818,310317,0,W,A*3C
$GPVTG,31.818,T,31.818,M,15.223,N,28.193,K,A*25
$GPGSA,A,3,28,13,30,24,5,17,15,20,8,,,,1.442,0.883,1.139*38
$GPGSV,3,1,12,5,17,207,35,30,41,83,38,8,12,27,28,28,65,91,35*4D
$GPGSV,3,2,12,13,79,240,44,15,47,293,33,17,12,138,23,24,10,267,26*70
$GPGSV,3,3,12,20,32,258,38,18,13,327,0,11,4,63,0,7,4,84,0*7E
$GPGGA,103941.34,5423.7142,N,01836.1745,E,1,9,0.883,38.364,M,30.639,M,0,0*61
$GPRMC,103941.34,A,5423.7142,N,01836.1745,E,12.700,32.021,310317,0,W,A*3A
$GPVTG,32.021,T,32.021,M,12.700,N,23.521,K,A*20
$GPGSA,A,3,28,13,30,24,5,17,15,20,8,,,,1.442,0.883,1.139*38
$GPGSV,3,1,12,5,17,207,34,30,41,83,39,8,12,27,27,11,4,63,20*76
$GPGSV,3,2,12,13,79,240,45,15,47,293,33,17,12,138,22,28,65,91,36*44
$GPGSV,3,3,12,20,32,258,40,24,10,267,26,18,13,327,0,7,4,84,0*40
$GPGGA,103942.34,5423.7175,N,01836.1776,E,1,9,0.883,37.280,M,30.639,M,0,0*62
$GPRMC,103942.34,A,5423.7175,N,01836.1776,E,11.527,29.995,310317,0,W,A*35
$GPVTG,29.995,T,29.995,M,11.527,N,21.347,K,A*20
$GPGSA,A,3,28,13,30,24,5,17,15,20,8,,,,1.442,0.883,1.139*38
$GPGSV,3,1,12,5,17,207,33,7,4,84,19,8,12,27,28,11,4,63,19*74
$GPGSV,3,2,12,13,79,240,45,15,47,293,32,17,12,138,22,30,41,83,40*48
$GPGSV,3,3,12,20,32,258,41,24,10,267,25,28,65,91,36,18,13,327,0*79
$GPGGA,103943.34,5423.7204,N,01836.1802,E,1,9,0.883,36.605,M,30.639,M,0,0*62
$GPRMC,103943.34,A,5423.7204,N,01836.1802,E,8.681,30.769,310317,0,W,A*0F
$GPVTG,30.769,T,30.769,M,8.681,N,16.077,K,A*13
$GPGSA,A,3,28,13,30,24,5,17,15,20,8,,,,1.442,0.883,1.139*38
$GPGSV,3,1,12,5,17,207,31,7,4,84,19,8,12,27,27,11,4,63,19*79
$GPGSV,3,2,12,13,79,240,45,15,47,293,31,17,12,138,22,30,41,83,42*49
$GPGSV,3,3,12,20,32,258,41,24,10,267,26,28,65,91,36,18,13,327,0*7A
$GPGGA,103944.34,5423.7228,N,01836.1825,E,1,9,0.883,35.900,M,30.639,M,0,0*67
$GPRMC,103944.34,A,5423.7228,N,01836.1825,E,6.452,32.073,310317,0,W,A*0F
$GPVTG,32.073,T,32.073,M,6.452,N,11.949,K,A*12
$GPGSA,A,3,28,13,30,24,5,17,15,20,8,,,,1.442,0.883,1.139*38
$GPGSV,3,1,12,5,17,207,32,7,4,84,18,8,12,26,27,11,4,63,20*70
$GPGSV,3,2,12,13,79,240,45,15,47,293,30,17,12,138,23,30,41,83,42*49
$GPGSV,3,3,12,20,32,258,41,24,10,267,26,28,65,91,37,18,13,327,0*7B
$GPGGA,103945.34,5423.7245,N,01836.1844,E,1,10,0.847,34.930,M,30.639,M,0,0*58
$GPRMC,103945.34,A,5423.7245,N,01836.1844,E,4.124,29.955,310317,0,W,A*03
$GPVTG,29.955,T,29.955,M,4.124,N,7.638,K,A*2A
$GPGSA,A,3,28,13,30,24,5,17,15,20,8,7,,,1.332,0.847,1.028*06
$GPGSV,3,1,12,5,17,207,31,7,4,84,16,8,12,26,27,30,41,83,43*44
$GPGSV,3,2,12,13,79,240,45,15,47,293,29,17,12,138,25,28,65,91,36*48
$GPGSV,3,3,12,20,32,258,42,24,10,267,26,18,13,327,0,11,4,63,0*7C
$GPGGA,103946.34,5423.7256,N,01836.1854,E,1,10,0.847,34.591,M,30.639,M,0,0*5F
$GPRMC,103946.34,A,5423.7256,N,01836.1854,E,2.043,29.955,310317,0,W,A*05
$GPVTG,29.955,T,29.955,M,2.043,N,3.784,K,A*2E
$GPGSA,A,3,28,13,30,24,5,17,15,20,8,7,,,1.332,0.847,1.028*06
$GPGSV,3,1,12,5,17,207,30,7,4,84,18,8,12,26,28,30,41,83,43*44
$GPGSV,3,2,12,13,79,240,45,15,47,293,30,17,12,138,25,28,65,91,37*41
$GPGSV,3,3,12,20,32,258,41,24,10,267,25,18,13,327,0,11,4,63,0*7C
$GPGGA,103947.34,5423.7260,N,01836.1860,E,1,10,0.847,34.095,M,30.639,M,0,0*5D
$GPRMC,103947.34,A,5423.7260,N,01836.1860,E,0.212,29.955,310317,0,W,A*02
$GPVTG,29.955,T,29.955,M,0.212,N,0.393,K,A*2B
$GPGSA,A,3,28,13,30,24,5,17,15,20,8,7,,,1.332,0.847,1.028*06
$GPGSV,3,1,12,5,17,207,29,7,4,84,19,8,12,26,31,11,4,63,15*7A
$GPGSV,3,2,12,13,79,240,45,15,47,293,31,17,12,138,26,30,41,83,43*4C
$GPGSV,3,3,12,20,32,258,41,24,10,267,25,28,65,91,37,18,13,327,0*78
$GPGGA,103948.34,5423.7260,N,01836.1867,E,1,9,0.883,33.449,M,30.639,M,0,0*67
$GPRMC,103948.34,A,5423.7260,N,01836.1867,E,0.109,29.955,310317,0,W,A*03
$GPVTG,29.955,T,29.955,M,0.109,N,0.201,K,A*28
$GPGSA,A,3,28,13,30,24,5,17,15,20,8,,,,1.442,0.883,1.139*38
$GPGSV,3,1,12,5,17,207,29,7,4,84,19,8,12,26,33,11,4,63,20*7E
$GPGSV,3,2,12,13,79,240,45,15,47,293,30,17,12,138,27,30,41,83,43*4C
$GPGSV,3,3,12,20,32,258,41,24,10,267,25,28,65,91,37,18,13,327,0*78
$GPGGA,103949.34,5423.7260,N,01836.1871,E,1,9,0.883,33.186,M,30.639,M,0,0*67
$GPRMC,103949.34,A,5423.7260,N,01836.1871,E,0.145,29.955,310317,0,W,A*0D
$GPVTG,29.955,T,29.955,M,0.145,N,0.269,K,A*2E
$GPGSA,A,3,28,13,30,24,5,17,15,20,8,,,,1.442,0.883,1.139*38
$GPGSV,3,1,12,5,17,207,27,7,4,84,19,8,12,26,35,30,41,83,43*4F
$GPGSV,3,2,12,13,79,240,45,15,47,293,30,17,12,138,26,18,13,327,33*7A
$GPGSV,3,3,12,20,32,258,42,24,10,267,25,28,65,91,37,11,4,63,0*77
$GPGGA,103950.34,5423.7260,N,01836.1876,E,1,10,0.847,33.156,M,30.639,M,0,0*55
$GPRMC,103950.34,A,5423.7260,N,01836.1876,E,0.054,29.955,310317,0,W,A*03
$GPVTG,29.955,T,29.955,M,0.054,N,0.099,K,A*22
$GPGSA,A,3,28,13,30,24,5,17,15,20,8,7,,,1.332,0.847,1.028*06
$GPGSV,3,1,12,5,17,207,27,7,4,84,19,8,12,26,36,30,41,83,43*4C
$GPGSV,3,2,12,13,79,240,45,15,47,293,31,17,12,138,26,18,13,327,32*7A
$GPGSV,3,3,12,20,32,258,42,24,10,267,25,28,65,91,37,11,4,63,0*77
$GPGGA,103951.34,5423.7260,N,01836.1879,E,1,10,0.847,33.171,M,30.639,M,0,0*5E
$GPRMC,103951.34,A,5423.7260,N,01836.1879,E,0.071,29.955,310317,0,W,A*0A
$GPVTG,29.955,T,29.955,M,0.071,N,0.131,K,A*26
$GPGSA,A,3,28,13,30,24,5,17,15,20,8,7,,,1.332,0.847,1.028*06
$GPGSV,3,1,12,5,17,207,26,7,4,84,19,8,12,26,36,30,41,83,42*4C
$GPGSV,3,2,12,13,79,240,45,15,47,293,31,17,12,138,26,18,13,327,32*7A
$GPGSV,3,3,12,20,32,258,42,24,10,267,25,28,65,91,38,11,4,63,0*78
$GPGGA,103952.34,5423.7263,N,01836.1881,E,1,10,0.847,32.884,M,30.639,M,0,0*5B
$GPRMC,103952.34,A,5423.7263,N,01836.1881,E,0.259,29.955,310317,0,W,A*05
$GPVTG,29.955,T,29.955,M,0.259,N,0.479,K,A*27
$GPGSA,A,3,28,13,30,24,5,17,15,20,8,7,,,1.332,0.847,1.028*06
$GPGSV,3,1,12,5,17,207,26,7,4,84,19,8,12,26,36,30,41,83,43*4D
$GPGSV,3,2,12,13,79,240,45,15,47,293,30,17,12,138,26,18,13,327,32*7B
$GPGSV,3,3,12,20,32,258,42,24,10,267,27,28,65,91,38,11,4,63,0*7A
$GPGGA,103953.34,5423.7266,N,01836.1881,E,1,10,0.847,33.014,M,30.639,M,0,0*5F
$GPRMC,103953.34,A,5423.7266,N,01836.1881,E,0.135,29.955,310317,0,W,A*08
$GPVTG,29.955,T,29.955,M,0.135,N,0.250,K,A*23
$GPGSA,A,3,28,13,30,24,5,17,15,20,8,7,,,1.332,0.847,1.028*06
$GPGSV,3,1,12,5,17,207,28,7,4,84,19,8,12,26,35,30,41,83,42*41
$GPGSV,3,2,12,13,79,240,45,15,47,293,29,17,12,138,26,18,13,327,32*73
$GPGSV,3,3,12,20,32,258,42,24,10,267,28,28,65,91,37,11,4,63,0*7A
$GPGGA,103954.34,5423.7269,N,01836.1881,E,1,10,0.847,32.885,M,30.639,M,0,0*56
$GPRMC,103954.34,A,5423.7269,N,01836.1881,E,0.123,29.955,310317,0,W,A*07
$GPVTG,29.955,T,29.955,M,0.123,N,0.228,K,A*2B
$GPGSA,A,3,28,13,30,24,5,17,15,20,8,7,,,1.332,0.847,1.028*06
$GPGSV,3,1,12,5,17,207,28,7,4,84,18,8,12,26,34,30,41,83,42*41
$GPGSV,3,2,12,13,79,240,45,15,47,293,28,17,12,138,26,18,13,327,32*72
$GPGSV,3,3,12,20,32,258,41,24,10,267,30,28,65,91,37,11,4,63,0*70
$GPGGA,103955.34,5423.7271,N,01836.1880,E,1,10,0.847,32.276,M,30.639,M,0,0*59
$GPRMC,103955.34,A,5423.7271,N,01836.1880,E,0.154,29.955,310317,0,W,A*0E
$GPVTG,29.955,T,29.955,M,0.154,N,0.284,K,A*2D
$GPGSA,A,3,28,13,30,24,5,17,15,20,8,7,,,1.332,0.847,1.028*06
$GPGSV,3,1,12,5,17,207,28,7,4,84,18,8,12,26,34,30,41,83,42*41
$GPGSV,3,2,12,13,79,240,45,15,47,293,28,17,12,138,25,18,13,327,31*72
$GPGSV,3,3,12,20,32,258,42,24,10,267,31,28,65,91,36,11,4,63,0*73
$GPGGA,103956.34,5423.7271,N,01836.1879,E,1,9,0.883,31.890,M,30.639,M,0,0*6D
$GPRMC,103956.34,A,5423.7271,N,01836.1879,E,0.240,29.955,310317,0,W,A*0D
$GPVTG,29.955,T,29.955,M,0.240,N,0.445,K,A*20
$GPGSA,A,3,28,13,30,24,5,17,15,20,8,,,,1.442,0.883,1.139*38
$GPGSV,3,1,12,5,17,207,28,7,4,84,19,8,12,26,32,30,41,83,41*45
$GPGSV,3,2,12,13,79,240,45,15,47,293,28,17,12,138,23,18,13,327,31*74
$GPGSV,3,3,12,20,32,258,41,24,10,267,31,28,65,91,35,11,4,63,0*73
$GPGGA,103957.34,5423.7270,N,01836.1880,E,1,9,0.883,31.546,M,30.639,M,0,0*6D
$GPRMC,103957.34,A,5423.7270,N,01836.1880,E,0.323,29.955,310317,0,W,A*0F
$GPVTG,29.955,T,29.955,M,0.323,N,0.598,K,A*25
$GPGSA,A,3,28,13,30,24,5,17,15,20,8,,,,1.442,0.883,1.139*38
$GPGSV,3,1,12,5,17,207,28,7,4,84,19,8,12,26,30,30,41,83,41*47
$GPGSV,3,2,12,13,79,240,45,15,47,293,28,17,12,138,22,18,13,327,30*74
$GPGSV,3,3,12,20,32,258,41,24,10,267,31,28,65,91,35,11,4,63,0*73
$GPGGA,103958.34,5423.7270,N,01836.1880,E,1,9,0.883,31.303,M,30.639,M,0,0*65
$GPRMC,103958.34,A,5423.7270,N,01836.1880,E,0.319,29.955,310317,0,W,A*09
$GPVTG,29.955,T,29.955,M,0.319,N,0.590,K,A*24
$GPGSA,A,3,28,13,30,24,5,17,15,20,8,,,,1.442,0.883,1.139*38
$GPGSV,3,1,12,5,17,207,28,7,4,84,17,8,12,26,29,30,41,83,40*40
$GPGSV,3,2,12,13,79,240,45,15,47,293,28,17,12,138,22,18,13,327,29*7C
$GPGSV,3,3,12,20,32,258,41,24,10,267,31,28,65,91,35,11,4,63,0*73
$GPGGA,103959.34,5423.7271,N,01836.1880,E,1,9,0.883,30.975,M,30.639,M,0,0*6F
$GPRMC,103959.34,A,5423.7271,N,01836.1880,E,0.186,29.955,310317,0,W,A*0D
$GPVTG,29.955,T,29.955,M,0.186,N,0.344,K,A*2F
$GPGSA,A,3,28,13,30,24,5,17,15,20,8,,,,1.442,0.883,1.139*38
$GPGSV,3,1,12,5,17,207,28,7,4,84,17,8,12,26,27,30,41,83,41*4F
$GPGSV,3,2,12,13,79,240,44,15,47,293,28,17,12,138,22,18,13,327,30*75
$GPGSV,3,3,12,20,32,258,42,24,10,267,30,28,65,91,35,11,4,63,0*71
$GPGGA,104000.34,5423.7273,N,01836.1879,E,1,10,0.847,30.940,M,30.639,M,0,0*5F
$GPRMC,104000.34,A,5423.7273,N,01836.1879,E,0.167,29.955,310317,0,W,A*04
$GPVTG,29.955,T,29.955,M,0.167,N,0.310,K,A*21
$GPGSA,A,3,28,13,30,24,5,17,15,20,8,7,,,1.332,0.847,1.028*06
$GPGSV,3,1,12,5,17,207,28,7,4,84,16,8,12,26,26,30,41,83,41*4F
$GPGSV,3,2,12,13,79,239,44,15,47,293,25,17,12,138,24,18,13,327,31*71
$GPGSV,3,3,12,20,32,258,42,24,10,267,29,28,65,91,35,11,4,63,0*79
$GPGGA,104001.34,5423.7276,N,01836.1878,E,1,10,0.847,30.762,M,30.639,M,0,0*54
$GPRMC,104001.34,A,5423.7276,N,01836.1878,E,0.133,29.955,310317,0,W,A*00
$GPVTG,29.955,T,29.955,M,0.133,N,0.247,K,A*23
$GPGSA,A,3,28,13,30,24,5,17,15,20,8,7,,,1.332,0.847,1.028*06
$GPGSV,3,1,12,5,17,207,30,7,4,84,15,8,12,26,26,30,41,83,42*46
$GPGSV,3,2,12,13,79,239,44,15,47,293,23,17,12,138,25,18,13,327,30*77
$GPGSV,3,3,12,20,32,258,42,24,10,267,29,28,65,91,35,11,4,63,0*79
$GPGGA,104002.34,5423.7280,N,01836.1877,E,1,10,0.847,30.424,M,30.639,M,0,0*50
$GPRMC,104002.34,A,5423.7280,N,01836.1877,E,0.073,29.955,310317,0,W,A*00
$GPVTG,29.955,T,29.955,M,0.073,N,0.134,K,A*21
$GPGSA,A,3,28,13,30,24,5,17,15,20,8,7,,,1.332,0.847,1.028*06
$GPGSV,3,1,12,5,17,207,30,7,4,84,18,8,12,26,27,30,41,83,42*4A
$GPGSV,3,2,12,13,79,239,44,15,47,293,24,17,12,138,27,18,13,327,31*73
$GPGSV,3,3,12,20,32,258,42,24,10,267,28,28,65,91,35,11,4,63,0*78
$GPGGA,104003.34,5423.7283,N,01836.1876,E,1,10,0.847,30.197,M,30.639,M,0,0*5E
$GPRMC,104003.34,A,5423.7283,N,01836.1876,E,0.276,29.955,310317,0,W,A*04
$GPVTG,29.955,T,29.955,M,0.276,N,0.511,K,A*25
$GPGSA,A,3,28,13,30,24,5,17,15,20,8,7,,,1.332,0.847,1.028*06
$GPGSV,3,1,12,5,17,207,30,7,4,84,19,8,12,26,28,30,41,83,43*45
$GPGSV,3,2,12,13,79,239,44,15,47,293,25,17,12,138,27,18,13,327,30*73
$GPGSV,3,3,12,20,32,258,43,24,10,267,28,28,65,91,35,11,4,63,0*79
$GPGGA,104004.34,5423.7286,N,01836.1874,E,1,10,0.847,30.045,M,30.639,M,0,0*50
$GPRMC,104004.34,A,5423.7286,N,01836.1874,E,0.232,29.955,310317,0,W,A*04
$GPVTG,29.955,T,29.955,M,0.232,N,0.429,K,A*2F
$GPGSA,A,3,28,13,30,24,5,17,15,20,8,7,,,1.332,0.847,1.028*06
$GPGSV,3,1,12,5,17,207,30,7,4,84,20,8,12,26,29,30,41,83,43*4E
$GPGSV,3,2,12,13,79,239,44,15,47,293,25,17,12,138,27,18,13,327,30*73
$GPGSV,3,3,12,20,32,258,42,24,10,267,29,28,65,91,35,11,4,63,0*79
$GPGGA,104005.34,5423.7290,N,01836.1873,E,1,10,0.847,30.258,M,30.639,M,0,0*5F
$GPRMC,104005.34,A,5423.7290,N,01836.1873,E,0.911,29.955,310317,0,W,A*0F
$GPVTG,29.955,T,29.955,M,0.911,N,1.687,K,A*22
$GPGSA,A,3,28,13,30,24,5,17,15,20,8,7,,,1.332,0.847,1.028*06
$GPGSV,3,1,12,5,17,207,30,7,4,84,22,8,12,26,29,30,41,83,42*4D
$GPGSV,3,2,12,13,79,239,45,15,47,293,25,17,12,138,27,18,13,327,30*72
$GPGSV,3,3,12,20,32,258,42,24,10,267,30,28,65,91,36,11,4,63,0*72
$GPGGA,104006.34,5423.7292,N,01836.1873,E,1,10,0.847,30.305,M,30.639,M,0,0*57
$GPRMC,104006.34,A,5423.7292,N,01836.1873,E,0.028,29.955,310317,0,W,A*0D
$GPVTG,29.955,T,29.955,M,0.028,N,0.051,K,A*2D
$GPGSA,A,3,28,13,30,24,5,17,15,20,8,7,,,1.332,0.847,1.028*06
$GPGSV,3,1,12,5,17,207,30,7,4,84,23,8,12,26,31,30,41,83,42*45
$GPGSV,3,2,12,13,79,239,45,15,47,293,26,17,12,138,28,18,13,327,30*7E
$GPGSV,3,3,12,20,32,258,43,24,10,267,30,28,65,91,36,11,4,63,0*73
$GPGGA,104007.34,5423.7291,N,01836.1872,E,1,10,0.847,30.162,M,30.639,M,0,0*57
$GPRMC,104007.34,A,5423.7291,N,01836.1872,E,0.060,29.955,310317,0,W,A*02
$GPVTG,29.955,T,29.955,M,0.060,N,0.111,K,A*24
$GPGSA,A,3,28,13,30,24,5,17,15,20,8,7,,,1.332,0.847,1.028*06
$GPGSV,3,1,12,5,17,207,30,7,4,84,23,8,12,26,32,30,41,83,42*46
$GPGSV,3,2,12,13,79,239,45,15,47,293,26,17,12,138,27,18,13,327,30*71
$GPGSV,3,3,12,20,32,258,43,24,10,267,31,28,65,91,36,11,4,63,0*72
$GPGGA,104008.34,5423.7290,N,01836.1873,E,1,10,0.847,30.318,M,30.639,M,0,0*57
$GPRMC,104008.34,A,5423.7290,N,01836.1873,E,0.139,29.955,310317,0,W,A*00
$GPVTG,29.955,T,29.955,M,0.139,N,0.257,K,A*28
$GPGSA,A,3,28,13,30,24,5,17,15,20,8,7,,,1.332,0.847,1.028*06
$GPGSV,3,1,12,5,17,207,30,7,4,84,24,8,12,26,33,30,41,83,41*43
$GPGSV,3,2,12,13,79,239,45,15,47,293,26,17,12,138,27,18,13,327,30*71
$GPGSV,3,3,12,20,32,258,43,24,10,267,31,28,65,91,36,11,4,63,0*72
$GPGGA,104009.34,5423.7290,N,01836.1872,E,1,10,0.847,29.846,M,30.639,M,0,0*5F
$GPRMC,104009.34,A,5423.7290,N,01836.1872,E,0.068,29.955,310317,0,W,A*05
$GPVTG,29.955,T,29.955,M,0.068,N,0.127,K,A*29
$GPGSA,A,3,28,13,30,24,5,17,15,20,8,7,,,1.332,0.847,1.028*06
$GPGSV,3,1,12,5,17,207,30,7,4,84,24,8,12,26,33,30,41,83,41*43
$GPGSV,3,2,12,13,79,239,45,15,47,293,26,17,12,138,28,18,13,327,31*7F
$GPGSV,3,3,12,20,32,258,43,24,10,267,31,28,65,91,36,11,4,63,0*72
$GPGGA,104010.34,5423.7290,N,01836.1872,E,1,10,0.847,29.803,M,30.639,M,0,0*56
$GPRMC,104010.34,A,5423.7290,N,01836.1872,E,0.127,29.955,310317,0,W,A*07
$GPVTG,29.955,T,29.955,M,0.127,N,0.235,K,A*23
$GPGSA,A,3,28,13,30,24,5,17,15,20,8,7,,,1.332,0.847,1.028*06
$GPGSV,3,1,12,5,17,207,30,7,4,84,23,8,12,26,34,30,41,83,41*43
